%  GPST                      x-ecef(m)      y-ecef(m)      z-ecef(m)   Q  ns   sdx(m)   sdy(m)   sdz(m)  sdxy(m)  sdyz(m)  sdzx(m) age(s)  ratio
2019/05/19 14:27:11.000  -2956913.8813   5075880.8326   2476416.4105   6   7   4.5210   5.2657   4.4099  -4.0357   3.3505  -2.8063   0.00    0.0
2019/05/19 14:27:12.000  -2956913.8698   5075880.9336   2476416.5875   6   7   3.2079   3.7396   3.1284  -2.8675   2.3828  -1.9951   0.00    0.0
2019/05/19 14:27:13.000  -2956913.9071   5075881.0337   2476416.6868   6   7   2.6223   3.0578   2.5571  -2.3451   1.9494  -1.6319   0.00    0.0
2019/05/19 14:27:14.000  -2956913.8780   5075881.0539   2476416.6579   6   7   2.2723   2.6501   2.2158  -2.0326   1.6898  -1.4146   0.00    0.0
2019/05/19 14:27:15.000  -2956913.8718   5075881.1020   2476416.5855   6   7   2.0332   2.3714   1.9826  -1.8190   1.5123  -1.2660   0.00    0.0
2019/05/19 14:27:16.000  -2956913.8690   5075881.1536   2476416.6261   6   7   1.8565   2.1654   1.8103  -1.6611   1.3811  -1.1561   0.00    0.0
2019/05/19 14:27:17.000  -2956913.8716   5075881.1800   2476416.6721   6   7   1.7192   2.0052   1.6764  -1.5383   1.2791  -1.0707   0.00    0.0
2019/05/19 14:27:18.000  -2956913.9475   5075881.2660   2476416.7428   6   7   1.6084   1.8760   1.5683  -1.4392   1.1967  -1.0018   0.00    0.0
2019/05/19 14:27:19.000  -2956913.9803   5075881.2491   2476416.6958   6   7   1.5166   1.7690   1.4788  -1.3571   1.1285  -0.9446   0.00    0.0
2019/05/19 14:27:20.000  -2956913.9604   5075881.2538   2476416.6692   6   7   1.4389   1.6784   1.4031  -1.2876   1.0707  -0.8963   0.00    0.0
2019/05/19 14:27:21.000  -2956913.9659   5075881.2868   2476416.6912   6   7   1.3721   1.6004   1.3379  -1.2279   1.0210  -0.8547   0.00    0.0
2019/05/19 14:27:22.000  -2956913.9712   5075881.3057   2476416.7274   6   7   1.3138   1.5324   1.2811  -1.1757   0.9776  -0.8184   0.00    0.0
2019/05/19 14:27:23.000  -2956913.9913   5075881.3535   2476416.7631   6   7   1.2623   1.4723   1.2309  -1.1297   0.9394  -0.7864   0.00    0.0
2019/05/19 14:27:24.000  -2956913.9900   5075881.3180   2476416.7311   6   7   1.2165   1.4189   1.1863  -1.0887   0.9053  -0.7578   0.00    0.0
2019/05/19 14:27:25.000  -2956913.9801   5075881.3204   2476416.7393   6   7   1.1753   1.3708   1.1461  -1.0518   0.8746  -0.7322   0.00    0.0
2019/05/19 14:27:26.000  -2956914.0025   5075881.3545   2476416.7382   6   7   1.1381   1.3273   1.1098  -1.0185   0.8469  -0.7090   0.00    0.0
2019/05/19 14:27:27.000  -2956914.0141   5075881.3658   2476416.7406   6   7   1.1041   1.2878   1.0767  -0.9882   0.8217  -0.6879   0.00    0.0
2019/05/19 14:27:28.000  -2956914.0255   5075881.4044   2476416.7696   6   7   1.0731   1.2515   1.0465  -0.9604   0.7986  -0.6685   0.00    0.0
2019/05/19 14:27:29.000  -2956914.0255   5075881.3956   2476416.7626   6   7   1.0445   1.2182   1.0186  -0.9348   0.7773  -0.6508   0.00    0.0
2019/05/19 14:27:30.000  -2956914.0317   5075881.3887   2476416.7654   6   7   1.0181   1.1874   0.9929  -0.9112   0.7577  -0.6343   0.00    0.0
2019/05/19 14:27:31.000  -2956914.0423   5075881.4008   2476416.7660   6   7   0.9936   1.1588   0.9690  -0.8893   0.7395  -0.6191   0.00    0.0
2019/05/19 14:27:32.000  -2956914.0297   5075881.3808   2476416.7528   6   7   0.9708   1.1322   0.9468  -0.8689   0.7225  -0.6049   0.00    0.0
2019/05/19 14:27:33.000  -2956914.0311   5075881.3870   2476416.7767   6   7   0.9495   1.1073   0.9260  -0.8498   0.7066  -0.5916   0.00    0.0
2019/05/19 14:27:34.000  -2956914.0226   5075881.3719   2476416.7866   6   7   0.9296   1.0840   0.9066  -0.8320   0.6918  -0.5792   0.00    0.0
2019/05/19 14:27:35.000  -2956914.0191   5075881.3643   2476416.7749   6   7   0.9108   1.0621   0.8883  -0.8152   0.6778  -0.5675   0.00    0.0
2019/05/19 14:27:36.000  -2956914.0216   5075881.3600   2476416.7807   6   7   0.8932   1.0415   0.8711  -0.7994   0.6647  -0.5565   0.00    0.0
2019/05/19 14:27:37.000  -2956913.9983   5075881.3353   2476416.7713   6   7   0.8765   1.0221   0.8548  -0.7845   0.6523  -0.5461   0.00    0.0
2019/05/19 14:27:38.000  -2956913.9895   5075881.3191   2476416.7562   6   7   0.8608   1.0037   0.8395  -0.7704   0.6405  -0.5363   0.00    0.0
2019/05/19 14:27:39.000  -2956913.9924   5075881.3237   2476416.7498   6   7   0.8458   0.9863   0.8249  -0.7570   0.6294  -0.5270   0.00    0.0
2019/05/19 14:27:40.000  -2956913.9962   5075881.3077   2476416.7419   6   7   0.8316   0.9697   0.8111  -0.7443   0.6189  -0.5182   0.00    0.0
2019/05/19 14:27:41.000  -2956913.9908   5075881.2935   2476416.7324   6   7   0.8181   0.9539   0.7979  -0.7322   0.6088  -0.5098   0.00    0.0
2019/05/19 14:27:42.000  -2956913.9882   5075881.2985   2476416.7408   6   7   0.8053   0.9389   0.7854  -0.7207   0.5992  -0.5018   0.00    0.0
2019/05/19 14:27:43.000  -2956913.9898   5075881.2926   2476416.7364   6   7   0.7930   0.9246   0.7734  -0.7098   0.5901  -0.4941   0.00    0.0
2019/05/19 14:27:44.000  -2956913.9876   5075881.2948   2476416.7401   6   7   0.7813   0.9109   0.7620  -0.6993   0.5814  -0.4868   0.00    0.0
2019/05/19 14:27:45.000  -2956913.9964   5075881.2972   2476416.7476   6   7   0.7701   0.8978   0.7511  -0.6892   0.5730  -0.4798   0.00    0.0
2019/05/19 14:27:46.000  -2956913.9908   5075881.2918   2476416.7458   6   7   0.7593   0.8853   0.7406  -0.6796   0.5650  -0.4731   0.00    0.0
2019/05/19 14:27:47.000  -2956913.9940   5075881.2907   2476416.7389   6   7   0.7490   0.8733   0.7306  -0.6704   0.5574  -0.4667   0.00    0.0
2019/05/19 14:27:48.000  -2956913.9932   5075881.2919   2476416.7464   6   7   0.7391   0.8617   0.7209  -0.6615   0.5500  -0.4605   0.00    0.0
2019/05/19 14:27:49.000  -2956913.9775   5075881.2823   2476416.7376   6   7   0.7296   0.8506   0.7117  -0.6530   0.5429  -0.4546   0.00    0.0
2019/05/19 14:27:50.000  -2956913.9841   5075881.2822   2476416.7387   6   7   0.7205   0.8399   0.7027  -0.6448   0.5361  -0.4489   0.00    0.0
2019/05/19 14:27:51.000  -2956913.9791   5075881.2768   2476416.7382   6   7   0.7117   0.8296   0.6941  -0.6369   0.5295  -0.4434   0.00    0.0
2019/05/19 14:27:52.000  -2956913.9875   5075881.2880   2476416.7413   6   7   0.7032   0.8197   0.6859  -0.6293   0.5232  -0.4381   0.00    0.0
2019/05/19 14:27:53.000  -2956913.9926   5075881.2867   2476416.7416   6   7   0.6950   0.8101   0.6779  -0.6220   0.5171  -0.4330   0.00    0.0
2019/05/19 14:27:54.000  -2956914.0035   5075881.2988   2476416.7517   6   7   0.6870   0.8008   0.6701  -0.6149   0.5112  -0.4281   0.00    0.0
2019/05/19 14:27:55.000  -2956914.0102   5075881.3078   2476416.7604   6   7   0.6794   0.7919   0.6627  -0.6081   0.5055  -0.4233   0.00    0.0
2019/05/19 14:27:56.000  -2956914.0010   5075881.2924   2476416.7524   6   7   0.6720   0.7833   0.6555  -0.6014   0.5000  -0.4187   0.00    0.0
2019/05/19 14:27:57.000  -2956914.0031   5075881.3025   2476416.7548   6   7   0.6648   0.7749   0.6485  -0.5950   0.4946  -0.4142   0.00    0.0
2019/05/19 14:27:58.000  -2956913.9994   5075881.2999   2476416.7535   6   7   0.6579   0.7668   0.6417  -0.5888   0.4895  -0.4099   0.00    0.0
2019/05/19 14:27:59.000  -2956913.9946   5075881.2973   2476416.7572   6   7   0.6512   0.7589   0.6352  -0.5828   0.4845  -0.4057   0.00    0.0
2019/05/19 14:28:00.000  -2956913.9969   5075881.3120   2476416.7657   6   7   0.6446   0.7513   0.6288  -0.5769   0.4796  -0.4017   0.00    0.0
2019/05/19 14:28:01.000  -2956913.9970   5075881.3185   2476416.7632   6   7   0.6383   0.7439   0.6226  -0.5713   0.4749  -0.3977   0.00    0.0
2019/05/19 14:28:02.000  -2956913.9968   5075881.3234   2476416.7673   6   7   0.6322   0.7367   0.6167  -0.5658   0.4703  -0.3939   0.00    0.0
2019/05/19 14:28:03.000  -2956913.9936   5075881.3220   2476416.7695   6   7   0.6262   0.7298   0.6108  -0.5604   0.4659  -0.3902   0.00    0.0
2019/05/19 14:28:04.000  -2956913.9934   5075881.3205   2476416.7708   6   7   0.6204   0.7230   0.6052  -0.5552   0.4615  -0.3866   0.00    0.0
2019/05/19 14:28:05.000  -2956913.9972   5075881.3282   2476416.7726   6   7   0.6147   0.7164   0.5997  -0.5502   0.4573  -0.3830   0.00    0.0
2019/05/19 14:28:06.000  -2956913.9963   5075881.3305   2476416.7731   6   7   0.6092   0.7100   0.5943  -0.5453   0.4532  -0.3796   0.00    0.0
2019/05/19 14:28:07.000  -2956913.9946   5075881.3341   2476416.7783   6   7   0.6039   0.7037   0.5891  -0.5405   0.4493  -0.3763   0.00    0.0
2019/05/19 14:28:08.000  -2956913.9964   5075881.3417   2476416.7833   6   7   0.5987   0.6976   0.5840  -0.5358   0.4454  -0.3730   0.00    0.0
2019/05/19 14:28:09.000  -2956913.9958   5075881.3412   2476416.7837   6   7   0.5936   0.6917   0.5791  -0.5313   0.4416  -0.3699   0.00    0.0
2019/05/19 14:28:10.000  -2956913.9963   5075881.3409   2476416.7853   6   7   0.5887   0.6859   0.5743  -0.5268   0.4379  -0.3668   0.00    0.0
2019/05/19 14:28:11.000  -2956913.9959   5075881.3404   2476416.7818   6   7   0.5838   0.6803   0.5696  -0.5225   0.4343  -0.3638   0.00    0.0
2019/05/19 14:28:12.000  -2956913.9948   5075881.3445   2476416.7793   6   7   0.5791   0.6748   0.5650  -0.5183   0.4308  -0.3609   0.00    0.0
2019/05/19 14:28:13.000  -2956913.9878   5075881.3405   2476416.7819   6   7   0.5745   0.6694   0.5605  -0.5142   0.4274  -0.3580   0.00    0.0
2019/05/19 14:28:14.000  -2956913.9912   5075881.3484   2476416.7836   6   7   0.5700   0.6642   0.5561  -0.5102   0.4240  -0.3552   0.00    0.0
2019/05/19 14:28:15.000  -2956913.9945   5075881.3511   2476416.7886   6   7   0.5657   0.6590   0.5518  -0.5063   0.4208  -0.3525   0.00    0.0
2019/05/19 14:28:16.000  -2956913.9941   5075881.3582   2476416.7948   6   7   0.5614   0.6540   0.5477  -0.5024   0.4176  -0.3498   0.00    0.0
2019/05/19 14:28:17.000  -2956913.9913   5075881.3597   2476416.8005   6   7   0.5572   0.6491   0.5436  -0.4987   0.4145  -0.3472   0.00    0.0
2019/05/19 14:28:18.000  -2956913.9942   5075881.3675   2476416.8036   6   7   0.5531   0.6444   0.5396  -0.4950   0.4114  -0.3446   0.00    0.0
2019/05/19 14:28:19.000  -2956913.9890   5075881.3617   2476416.8023   6   7   0.5491   0.6397   0.5357  -0.4914   0.4084  -0.3421   0.00    0.0
2019/05/19 14:28:20.000  -2956913.9912   5075881.3627   2476416.8026   6   7   0.5452   0.6351   0.5319  -0.4879   0.4055  -0.3397   0.00    0.0
2019/05/19 14:28:21.000  -2956913.9932   5075881.3653   2476416.8070   6   7   0.5413   0.6306   0.5281  -0.4845   0.4026  -0.3373   0.00    0.0
2019/05/19 14:28:22.000  -2956913.9992   5075881.3749   2476416.8130   6   7   0.5376   0.6262   0.5245  -0.4811   0.3998  -0.3350   0.00    0.0
2019/05/19 14:28:23.000  -2956913.9996   5075881.3698   2476416.8090   6   7   0.5339   0.6219   0.5209  -0.4778   0.3971  -0.3327   0.00    0.0
2019/05/19 14:28:24.000  -2956913.9987   5075881.3731   2476416.8075   6   7   0.5303   0.6177   0.5174  -0.4746   0.3944  -0.3304   0.00    0.0
2019/05/19 14:28:25.000  -2956914.0009   5075881.3804   2476416.8033   6   7   0.5268   0.6136   0.5139  -0.4714   0.3918  -0.3282   0.00    0.0
2019/05/19 14:28:26.000  -2956914.0033   5075881.3816   2476416.8011   6   7   0.5233   0.6095   0.5106  -0.4683   0.3892  -0.3261   0.00    0.0
2019/05/19 14:28:27.000  -2956914.0053   5075881.3826   2476416.8002   6   7   0.5199   0.6056   0.5073  -0.4653   0.3867  -0.3240   0.00    0.0
2019/05/19 14:28:28.000  -2956914.0054   5075881.3853   2476416.8058   6   7   0.5166   0.6017   0.5040  -0.4623   0.3842  -0.3219   0.00    0.0
2019/05/19 14:28:29.000  -2956913.9982   5075881.3805   2476416.7977   6   7   0.5133   0.5979   0.5008  -0.4594   0.3818  -0.3199   0.00    0.0
2019/05/19 14:28:30.000  -2956913.9950   5075881.3803   2476416.7943   6   7   0.5101   0.5941   0.4977  -0.4565   0.3794  -0.3179   0.00    0.0
2019/05/19 14:28:31.000  -2956913.9948   5075881.3817   2476416.7933   6   7   0.5070   0.5905   0.4947  -0.4537   0.3770  -0.3159   0.00    0.0
2019/05/19 14:28:32.000  -2956913.9959   5075881.3823   2476416.7911   6   7   0.5039   0.5868   0.4917  -0.4510   0.3747  -0.3140   0.00    0.0
2019/05/19 14:28:33.000  -2956913.9955   5075881.3844   2476416.7883   6   7   0.5009   0.5833   0.4887  -0.4482   0.3725  -0.3121   0.00    0.0
2019/05/19 14:28:34.000  -2956913.9962   5075881.3871   2476416.7850   6   7   0.4979   0.5798   0.4858  -0.4456   0.3703  -0.3102   0.00    0.0
2019/05/19 14:28:35.000  -2956913.9960   5075881.3904   2476416.7880   6   7   0.4950   0.5764   0.4830  -0.4430   0.3681  -0.3084   0.00    0.0
2019/05/19 14:28:36.000  -2956913.9968   5075881.3905   2476416.7885   6   7   0.4921   0.5731   0.4802  -0.4404   0.3659  -0.3066   0.00    0.0
2019/05/19 14:28:37.000  -2956913.9978   5075881.3903   2476416.7886   6   7   0.4893   0.5698   0.4774  -0.4379   0.3638  -0.3049   0.00    0.0
2019/05/19 14:28:38.000  -2956914.0009   5075881.3888   2476416.7913   6   7   0.4865   0.5665   0.4747  -0.4354   0.3618  -0.3031   0.00    0.0
2019/05/19 14:28:39.000  -2956914.0013   5075881.3893   2476416.7912   6   7   0.4838   0.5633   0.4721  -0.4330   0.3597  -0.3014   0.00    0.0
2019/05/19 14:28:40.000  -2956914.0023   5075881.3918   2476416.7851   6   7   0.4811   0.5602   0.4694  -0.4306   0.3577  -0.2998   0.00    0.0
2019/05/19 14:28:41.000  -2956913.9987   5075881.3873   2476416.7823   6   7   0.4785   0.5571   0.4669  -0.4282   0.3558  -0.2981   0.00    0.0
2019/05/19 14:28:42.000  -2956914.0010   5075881.3897   2476416.7789   6   7   0.4759   0.5541   0.4644  -0.4259   0.3538  -0.2965   0.00    0.0
2019/05/19 14:28:43.000  -2956913.9997   5075881.3899   2476416.7772   6   7   0.4733   0.5511   0.4619  -0.4236   0.3519  -0.2949   0.00    0.0
2019/05/19 14:28:44.000  -2956913.9983   5075881.3876   2476416.7727   6   7   0.4708   0.5482   0.4594  -0.4213   0.3501  -0.2934   0.00    0.0
2019/05/19 14:28:45.000  -2956914.0011   5075881.3912   2476416.7708   6   7   0.4683   0.5453   0.4570  -0.4191   0.3482  -0.2918   0.00    0.0
2019/05/19 14:28:46.000  -2956914.0021   5075881.3910   2476416.7675   6   7   0.4659   0.5424   0.4546  -0.4170   0.3464  -0.2903   0.00    0.0
2019/05/19 14:28:47.000  -2956914.0003   5075881.3877   2476416.7664   6   7   0.4635   0.5396   0.4523  -0.4148   0.3446  -0.2888   0.00    0.0
2019/05/19 14:28:48.000  -2956913.9984   5075881.3819   2476416.7608   6   7   0.4612   0.5369   0.4500  -0.4127   0.3429  -0.2874   0.00    0.0
2019/05/19 14:28:49.000  -2956913.9980   5075881.3813   2476416.7574   6   7   0.4588   0.5342   0.4478  -0.4106   0.3412  -0.2859   0.00    0.0
2019/05/19 14:28:50.000  -2956913.9953   5075881.3777   2476416.7545   6   7   0.4565   0.5315   0.4455  -0.4086   0.3394  -0.2845   0.00    0.0
2019/05/19 14:28:51.000  -2956913.9959   5075881.3806   2476416.7542   6   7   0.4543   0.5289   0.4433  -0.4066   0.3378  -0.2831   0.00    0.0
2019/05/19 14:28:52.000  -2956913.9975   5075881.3790   2476416.7532   6   7   0.4521   0.5263   0.4412  -0.4046   0.3361  -0.2817   0.00    0.0
2019/05/19 14:28:53.000  -2956913.9922   5075881.3699   2476416.7482   6   7   0.4499   0.5237   0.4390  -0.4026   0.3345  -0.2803   0.00    0.0
2019/05/19 14:28:54.000  -2956913.9887   5075881.3641   2476416.7450   6   7   0.4477   0.5212   0.4369  -0.4007   0.3329  -0.2790   0.00    0.0
2019/05/19 14:28:55.000  -2956913.9849   5075881.3586   2476416.7395   6   7   0.4456   0.5187   0.4349  -0.3988   0.3313  -0.2777   0.00    0.0
2019/05/19 14:28:56.000  -2956913.9832   5075881.3571   2476416.7386   6   7   0.4435   0.5163   0.4328  -0.3969   0.3297  -0.2764   0.00    0.0
2019/05/19 14:28:57.000  -2956913.9843   5075881.3596   2476416.7379   6   7   0.4415   0.5138   0.4308  -0.3951   0.3282  -0.2751   0.00    0.0
2019/05/19 14:28:58.000  -2956913.9848   5075881.3633   2476416.7399   6   7   0.4394   0.5115   0.4288  -0.3932   0.3267  -0.2738   0.00    0.0
2019/05/19 14:28:59.000  -2956913.9821   5075881.3642   2476416.7390   6   7   0.4374   0.5091   0.4269  -0.3914   0.3252  -0.2726   0.00    0.0
2019/05/19 14:29:00.000  -2956913.9820   5075881.3656   2476416.7385   6   7   0.4354   0.5068   0.4250  -0.3897   0.3237  -0.2713   0.00    0.0
2019/05/19 14:29:01.000  -2956913.9807   5075881.3632   2476416.7351   6   7   0.4335   0.5045   0.4231  -0.3879   0.3222  -0.2701   0.00    0.0
2019/05/19 14:29:02.000  -2956913.9798   5075881.3605   2476416.7314   6   7   0.4316   0.5023   0.4212  -0.3862   0.3208  -0.2689   0.00    0.0
2019/05/19 14:29:03.000  -2956913.9807   5075881.3635   2476416.7314   6   7   0.4297   0.5000   0.4193  -0.3845   0.3194  -0.2677   0.00    0.0
2019/05/19 14:29:04.000  -2956913.9808   5075881.3593   2476416.7286   6   7   0.4278   0.4978   0.4175  -0.3828   0.3180  -0.2666   0.00    0.0
2019/05/19 14:29:05.000  -2956913.9796   5075881.3596   2476416.7238   6   7   0.4259   0.4957   0.4157  -0.3812   0.3166  -0.2654   0.00    0.0
2019/05/19 14:29:06.000  -2956913.9788   5075881.3563   2476416.7202   6   7   0.4241   0.4935   0.4139  -0.3795   0.3153  -0.2643   0.00    0.0
2019/05/19 14:29:07.000  -2956913.9817   5075881.3623   2476416.7162   6   7   0.4223   0.4914   0.4122  -0.3779   0.3139  -0.2631   0.00    0.0
2019/05/19 14:29:08.000  -2956913.9856   5075881.3697   2476416.7211   6   7   0.4205   0.4893   0.4104  -0.3763   0.3126  -0.2620   0.00    0.0
2019/05/19 14:29:09.000  -2956913.9849   5075881.3697   2476416.7202   6   7   0.4188   0.4873   0.4087  -0.3747   0.3113  -0.2609   0.00    0.0
2019/05/19 14:29:10.000  -2956913.9850   5075881.3702   2476416.7214   6   7   0.4170   0.4853   0.4070  -0.3732   0.3100  -0.2599   0.00    0.0
2019/05/19 14:29:11.000  -2956913.9834   5075881.3675   2476416.7165   6   7   0.4153   0.4833   0.4054  -0.3717   0.3087  -0.2588   0.00    0.0
2019/05/19 14:29:12.000  -2956913.9826   5075881.3632   2476416.7140   6   7   0.4136   0.4813   0.4037  -0.3701   0.3074  -0.2577   0.00    0.0
2019/05/19 14:29:13.000  -2956913.9794   5075881.3604   2476416.7107   6   7   0.4119   0.4793   0.4021  -0.3686   0.3062  -0.2567   0.00    0.0
2019/05/19 14:29:14.000  -2956913.9797   5075881.3604   2476416.7071   6   7   0.4103   0.4774   0.4005  -0.3672   0.3050  -0.2557   0.00    0.0
2019/05/19 14:29:15.000  -2956913.9828   5075881.3641   2476416.7074   6   7   0.4087   0.4755   0.3989  -0.3657   0.3037  -0.2546   0.00    0.0
2019/05/19 14:29:16.000  -2956913.9823   5075881.3636   2476416.7061   6   7   0.4071   0.4736   0.3973  -0.3643   0.3025  -0.2536   0.00    0.0
2019/05/19 14:29:17.000  -2956913.9798   5075881.3624   2476416.7064   6   7   0.4055   0.4717   0.3958  -0.3628   0.3013  -0.2526   0.00    0.0
2019/05/19 14:29:18.000  -2956913.9806   5075881.3623   2476416.7054   6   7   0.4039   0.4699   0.3942  -0.3614   0.3002  -0.2517   0.00    0.0
2019/05/19 14:29:19.000  -2956913.9757   5075881.3551   2476416.7027   6   7   0.4023   0.4681   0.3927  -0.3600   0.2990  -0.2507   0.00    0.0
2019/05/19 14:29:20.000  -2956913.9740   5075881.3513   2476416.6975   6   7   0.4008   0.4663   0.3912  -0.3587   0.2979  -0.2497   0.00    0.0
2019/05/19 14:29:21.000  -2956913.9725   5075881.3500   2476416.6959   6   7   0.3993   0.4645   0.3897  -0.3573   0.2967  -0.2488   0.00    0.0
2019/05/19 14:29:22.000  -2956913.9721   5075881.3509   2476416.6957   6   7   0.3978   0.4627   0.3883  -0.3560   0.2956  -0.2479   0.00    0.0
2019/05/19 14:29:23.000  -2956913.9729   5075881.3561   2476416.6977   6   7   0.3963   0.4610   0.3868  -0.3546   0.2945  -0.2469   0.00    0.0
2019/05/19 14:29:24.000  -2956913.9719   5075881.3539   2476416.6963   6   7   0.3948   0.4593   0.3854  -0.3533   0.2934  -0.2460   0.00    0.0
2019/05/19 14:29:25.000  -2956913.9745   5075881.3581   2476416.6955   6   7   0.3934   0.4576   0.3840  -0.3520   0.2923  -0.2451   0.00    0.0
2019/05/19 14:29:26.000  -2956913.9759   5075881.3578   2476416.6937   6   7   0.3919   0.4559   0.3826  -0.3507   0.2912  -0.2442   0.00    0.0
2019/05/19 14:29:27.000  -2956913.9754   5075881.3570   2476416.6925   6   7   0.3905   0.4542   0.3812  -0.3494   0.2902  -0.2433   0.00    0.0
2019/05/19 14:29:28.000  -2956913.9730   5075881.3550   2476416.6921   6   7   0.3891   0.4526   0.3798  -0.3482   0.2891  -0.2424   0.00    0.0
2019/05/19 14:29:29.000  -2956913.9719   5075881.3536   2476416.6882   6   7   0.3877   0.4509   0.3785  -0.3469   0.2881  -0.2416   0.00    0.0
2019/05/19 14:29:30.000  -2956913.9733   5075881.3555   2476416.6860   6   7   0.3863   0.4493   0.3771  -0.3457   0.2871  -0.2407   0.00    0.0
2019/05/19 14:29:31.000  -2956913.9736   5075881.3564   2476416.6884   6   7   0.3850   0.4477   0.3758  -0.3445   0.2861  -0.2399   0.00    0.0
2019/05/19 14:29:32.000  -2956913.9744   5075881.3544   2476416.6888   6   7   0.3836   0.4462   0.3745  -0.3433   0.2851  -0.2390   0.00    0.0
2019/05/19 14:29:33.000  -2956913.9745   5075881.3554   2476416.6887   6   7   0.3823   0.4446   0.3732  -0.3421   0.2841  -0.2382   0.00    0.0
2019/05/19 14:29:34.000  -2956913.9737   5075881.3533   2476416.6887   6   7   0.3810   0.4431   0.3719  -0.3409   0.2831  -0.2374   0.00    0.0
2019/05/19 14:29:35.000  -2956913.9739   5075881.3532   2476416.6874   6   7   0.3797   0.4415   0.3706  -0.3397   0.2821  -0.2366   0.00    0.0
2019/05/19 14:29:36.000  -2956913.9728   5075881.3538   2476416.6856   6   7   0.3784   0.4400   0.3694  -0.3386   0.2811  -0.2358   0.00    0.0
2019/05/19 14:29:37.000  -2956913.9733   5075881.3532   2476416.6834   6   7   0.3771   0.4385   0.3681  -0.3375   0.2802  -0.2350   0.00    0.0
2019/05/19 14:29:38.000  -2956913.9700   5075881.3479   2476416.6799   6   7   0.3758   0.4370   0.3669  -0.3363   0.2792  -0.2342   0.00    0.0
2019/05/19 14:29:39.000  -2956913.9669   5075881.3450   2476416.6783   6   7   0.3746   0.4356   0.3657  -0.3352   0.2783  -0.2334   0.00    0.0
2019/05/19 14:29:40.000  -2956913.9665   5075881.3431   2476416.6758   6   7   0.3733   0.4341   0.3645  -0.3341   0.2774  -0.2326   0.00    0.0
2019/05/19 14:29:41.000  -2956913.9666   5075881.3436   2476416.6754   6   7   0.3721   0.4327   0.3633  -0.3330   0.2765  -0.2319   0.00    0.0
2019/05/19 14:29:42.000  -2956913.9639   5075881.3414   2476416.6752   6   7   0.3709   0.4313   0.3621  -0.3319   0.2756  -0.2311   0.00    0.0
2019/05/19 14:29:43.000  -2956913.9638   5075881.3425   2476416.6743   6   7   0.3697   0.4299   0.3609  -0.3308   0.2747  -0.2304   0.00    0.0
2019/05/19 14:29:44.000  -2956913.9643   5075881.3404   2476416.6718   6   7   0.3685   0.4285   0.3597  -0.3298   0.2738  -0.2296   0.00    0.0
2019/05/19 14:29:45.000  -2956913.9652   5075881.3431   2476416.6734   6   7   0.3673   0.4271   0.3586  -0.3287   0.2729  -0.2289   0.00    0.0
2019/05/19 14:29:46.000  -2956913.9649   5075881.3431   2476416.6721   6   7   0.3662   0.4257   0.3575  -0.3277   0.2720  -0.2282   0.00    0.0
2019/05/19 14:29:47.000  -2956913.9689   5075881.3456   2476416.6744   6   7   0.3650   0.4244   0.3563  -0.3266   0.2712  -0.2274   0.00    0.0
2019/05/19 14:29:48.000  -2956913.9706   5075881.3471   2476416.6744   6   7   0.3639   0.4230   0.3552  -0.3256   0.2703  -0.2267   0.00    0.0
2019/05/19 14:29:49.000  -2956913.9717   5075881.3474   2476416.6746   6   7   0.3627   0.4217   0.3541  -0.3246   0.2695  -0.2260   0.00    0.0
2019/05/19 14:29:50.000  -2956913.9706   5075881.3485   2476416.6725   6   7   0.3616   0.4204   0.3530  -0.3236   0.2686  -0.2253   0.00    0.0
2019/05/19 14:29:51.000  -2956913.9695   5075881.3487   2476416.6716   6   7   0.3605   0.4191   0.3519  -0.3226   0.2678  -0.2246   0.00    0.0
2019/05/19 14:29:52.000  -2956913.9689   5075881.3456   2476416.6713   6   7   0.3594   0.4178   0.3509  -0.3216   0.2670  -0.2239   0.00    0.0
2019/05/19 14:29:53.000  -2956913.9704   5075881.3462   2476416.6700   6   7   0.3583   0.4165   0.3498  -0.3206   0.2662  -0.2232   0.00    0.0
2019/05/19 14:29:54.000  -2956913.9728   5075881.3479   2476416.6696   6   7   0.3572   0.4152   0.3487  -0.3196   0.2653  -0.2226   0.00    0.0
2019/05/19 14:29:55.000  -2956913.9716   5075881.3464   2476416.6681   6   7   0.3561   0.4140   0.3477  -0.3187   0.2645  -0.2219   0.00    0.0
2019/05/19 14:29:56.000  -2956913.9703   5075881.3440   2476416.6656   6   7   0.3551   0.4127   0.3467  -0.3177   0.2637  -0.2212   0.00    0.0
2019/05/19 14:29:57.000  -2956913.9707   5075881.3423   2476416.6640   6   7   0.3540   0.4115   0.3456  -0.3168   0.2630  -0.2206   0.00    0.0
2019/05/19 14:29:58.000  -2956913.9683   5075881.3395   2476416.6646   6   7   0.3530   0.4103   0.3446  -0.3158   0.2622  -0.2199   0.00    0.0
2019/05/19 14:29:59.000  -2956913.9678   5075881.3386   2476416.6642   6   7   0.3519   0.4091   0.3436  -0.3149   0.2614  -0.2193   0.00    0.0
2019/05/19 14:30:00.000  -2956913.9674   5075881.3368   2476416.6625   6   7   0.3509   0.4079   0.3426  -0.3140   0.2606  -0.2187   0.00    0.0
2019/05/19 14:30:01.000  -2956913.9659   5075881.3352   2476416.6606   6   7   0.3499   0.4067   0.3416  -0.3131   0.2599  -0.2180   0.00    0.0
2019/05/19 14:30:02.000  -2956913.9636   5075881.3354   2476416.6610   6   7   0.3489   0.4055   0.3406  -0.3122   0.2591  -0.2174   0.00    0.0
2019/05/19 14:30:03.000  -2956913.9617   5075881.3336   2476416.6593   6   7   0.3479   0.4043   0.3397  -0.3113   0.2584  -0.2168   0.00    0.0
2019/05/19 14:30:04.000  -2956913.9606   5075881.3334   2476416.6578   6   7   0.3469   0.4032   0.3387  -0.3104   0.2576  -0.2161   0.00    0.0
2019/05/19 14:30:05.000  -2956913.9574   5075881.3300   2476416.6553   6   7   0.3459   0.4020   0.3377  -0.3095   0.2569  -0.2155   0.00    0.0
2019/05/19 14:30:06.000  -2956913.9557   5075881.3308   2476416.6555   6   7   0.3449   0.4009   0.3368  -0.3087   0.2562  -0.2149   0.00    0.0
2019/05/19 14:30:07.000  -2956913.9562   5075881.3302   2476416.6548   6   7   0.3440   0.3997   0.3358  -0.3078   0.2555  -0.2143   0.00    0.0
2019/05/19 14:30:08.000  -2956913.9561   5075881.3307   2476416.6546   6   7   0.3430   0.3986   0.3349  -0.3069   0.2548  -0.2137   0.00    0.0
2019/05/19 14:30:09.000  -2956913.9546   5075881.3268   2476416.6527   6   7   0.3421   0.3975   0.3340  -0.3061   0.2540  -0.2131   0.00    0.0
2019/05/19 14:30:10.000  -2956913.9542   5075881.3256   2476416.6501   6   7   0.3411   0.3964   0.3331  -0.3052   0.2533  -0.2126   0.00    0.0
2019/05/19 14:30:11.000  -2956913.9546   5075881.3218   2476416.6458   6   7   0.3402   0.3953   0.3322  -0.3044   0.2526  -0.2120   0.00    0.0
2019/05/19 14:30:12.000  -2956913.9531   5075881.3192   2476416.6441   6   7   0.3393   0.3942   0.3313  -0.3036   0.2520  -0.2114   0.00    0.0
2019/05/19 14:30:13.000  -2956913.9523   5075881.3188   2476416.6425   6   7   0.3384   0.3931   0.3304  -0.3028   0.2513  -0.2108   0.00    0.0
2019/05/19 14:30:14.000  -2956913.9513   5075881.3198   2476416.6421   6   7   0.3374   0.3921   0.3295  -0.3019   0.2506  -0.2103   0.00    0.0
2019/05/19 14:30:15.000  -2956913.9490   5075881.3197   2476416.6412   6   7   0.3365   0.3910   0.3286  -0.3011   0.2499  -0.2097   0.00    0.0
2019/05/19 14:30:16.000  -2956913.9462   5075881.3175   2476416.6388   6   7   0.3356   0.3900   0.3277  -0.3003   0.2492  -0.2091   0.00    0.0
2019/05/19 14:30:17.000  -2956913.9455   5075881.3172   2476416.6375   6   7   0.3348   0.3889   0.3269  -0.2995   0.2486  -0.2086   0.00    0.0
2019/05/19 14:30:18.000  -2956913.9459   5075881.3175   2476416.6378   6   7   0.3339   0.3879   0.3260  -0.2987   0.2479  -0.2080   0.00    0.0
2019/05/19 14:30:19.000  -2956913.9439   5075881.3147   2476416.6365   6   7   0.3330   0.3869   0.3251  -0.2980   0.2473  -0.2075   0.00    0.0
2019/05/19 14:30:20.000  -2956913.9419   5075881.3106   2476416.6337   6   7   0.3321   0.3859   0.3243  -0.2972   0.2466  -0.2069   0.00    0.0
2019/05/19 14:30:21.000  -2956913.9424   5075881.3111   2476416.6311   6   7   0.3313   0.3849   0.3235  -0.2964   0.2460  -0.2064   0.00    0.0
2019/05/19 14:30:22.000  -2956913.9402   5075881.3073   2476416.6281   6   7   0.3304   0.3839   0.3226  -0.2957   0.2453  -0.2059   0.00    0.0
2019/05/19 14:30:23.000  -2956913.9397   5075881.3069   2476416.6281   6   7   0.3296   0.3829   0.3218  -0.2949   0.2447  -0.2053   0.00    0.0
2019/05/19 14:30:24.000  -2956913.9404   5075881.3075   2476416.6266   6   7   0.3287   0.3819   0.3210  -0.2941   0.2441  -0.2048   0.00    0.0
2019/05/19 14:30:25.000  -2956913.9386   5075881.3045   2476416.6264   6   7   0.3279   0.3809   0.3202  -0.2934   0.2435  -0.2043   0.00    0.0
2019/05/19 14:30:26.000  -2956913.9391   5075881.3036   2476416.6244   6   7   0.3271   0.3799   0.3194  -0.2927   0.2428  -0.2038   0.00    0.0
2019/05/19 14:30:27.000  -2956913.9372   5075881.3032   2476416.6218   6   7   0.3263   0.3790   0.3186  -0.2919   0.2422  -0.2033   0.00    0.0
2019/05/19 14:30:28.000  -2956913.9359   5075881.3008   2476416.6199   6   7   0.3254   0.3780   0.3178  -0.2912   0.2416  -0.2028   0.00    0.0
2019/05/19 14:30:29.000  -2956913.9357   5075881.3014   2476416.6205   6   7   0.3246   0.3771   0.3170  -0.2905   0.2410  -0.2023   0.00    0.0
2019/05/19 14:30:30.000  -2956913.9349   5075881.2997   2476416.6174   6   7   0.3238   0.3761   0.3162  -0.2897   0.2404  -0.2018   0.00    0.0
2019/05/19 14:30:31.000  -2956913.9361   5075881.3009   2476416.6166   6   7   0.3230   0.3752   0.3154  -0.2890   0.2398  -0.2013   0.00    0.0
2019/05/19 14:30:32.000  -2956913.9332   5075881.2981   2476416.6130   6   7   0.3222   0.3743   0.3147  -0.2883   0.2392  -0.2008   0.00    0.0
2019/05/19 14:30:33.000  -2956913.9316   5075881.2957   2476416.6120   6   7   0.3215   0.3733   0.3139  -0.2876   0.2386  -0.2003   0.00    0.0
2019/05/19 14:30:34.000  -2956913.9307   5075881.2932   2476416.6117   6   7   0.3207   0.3724   0.3131  -0.2869   0.2381  -0.1998   0.00    0.0
2019/05/19 14:30:35.000  -2956913.9287   5075881.2913   2476416.6119   6   7   0.3199   0.3715   0.3124  -0.2862   0.2375  -0.1993   0.00    0.0
2019/05/19 14:30:36.000  -2956913.9312   5075881.2937   2476416.6146   6   7   0.3191   0.3706   0.3116  -0.2855   0.2369  -0.1988   0.00    0.0
2019/05/19 14:30:37.000  -2956913.9325   5075881.2954   2476416.6152   6   7   0.3184   0.3697   0.3109  -0.2849   0.2363  -0.1984   0.00    0.0
2019/05/19 14:30:38.000  -2956913.9320   5075881.2954   2476416.6140   6   7   0.3176   0.3688   0.3102  -0.2842   0.2358  -0.1979   0.00    0.0
2019/05/19 14:30:39.000  -2956913.9326   5075881.2933   2476416.6121   6   7   0.3169   0.3680   0.3094  -0.2835   0.2352  -0.1974   0.00    0.0
2019/05/19 14:30:40.000  -2956913.9327   5075881.2919   2476416.6120   6   7   0.3161   0.3671   0.3087  -0.2828   0.2347  -0.1970   0.00    0.0
2019/05/19 14:30:41.000  -2956913.9336   5075881.2909   2476416.6100   6   7   0.3154   0.3662   0.3080  -0.2822   0.2341  -0.1965   0.00    0.0
2019/05/19 14:30:42.000  -2956913.9311   5075881.2856   2476416.6060   6   7   0.3146   0.3654   0.3073  -0.2815   0.2336  -0.1960   0.00    0.0
2019/05/19 14:30:43.000  -2956913.9319   5075881.2857   2476416.6063   6   7   0.3139   0.3645   0.3065  -0.2809   0.2330  -0.1956   0.00    0.0
2019/05/19 14:30:44.000  -2956913.9320   5075881.2852   2476416.6051   6   7   0.3132   0.3637   0.3058  -0.2802   0.2325  -0.1951   0.00    0.0
2019/05/19 14:30:45.000  -2956913.9301   5075881.2820   2476416.6030   6   7   0.3125   0.3628   0.3051  -0.2796   0.2319  -0.1947   0.00    0.0
2019/05/19 14:30:46.000  -2956913.9302   5075881.2813   2476416.6015   6   7   0.3118   0.3620   0.3044  -0.2789   0.2314  -0.1942   0.00    0.0
2019/05/19 14:30:47.000  -2956913.9293   5075881.2803   2476416.6015   6   7   0.3110   0.3611   0.3037  -0.2783   0.2309  -0.1938   0.00    0.0
2019/05/19 14:30:48.000  -2956913.9292   5075881.2792   2476416.6024   6   7   0.3103   0.3603   0.3031  -0.2777   0.2303  -0.1934   0.00    0.0
2019/05/19 14:30:49.000  -2956913.9305   5075881.2801   2476416.6025   6   7   0.3096   0.3595   0.3024  -0.2770   0.2298  -0.1929   0.00    0.0
2019/05/19 14:30:50.000  -2956913.9285   5075881.2778   2476416.6017   6   7   0.3089   0.3587   0.3017  -0.2764   0.2293  -0.1925   0.00    0.0
2019/05/19 14:30:51.000  -2956913.9284   5075881.2765   2476416.6010   6   7   0.3083   0.3579   0.3010  -0.2758   0.2288  -0.1921   0.00    0.0
2019/05/19 14:30:52.000  -2956913.9270   5075881.2729   2476416.5983   6   7   0.3076   0.3571   0.3004  -0.2752   0.2283  -0.1916   0.00    0.0
2019/05/19 14:30:53.000  -2956913.9247   5075881.2691   2476416.5962   6   7   0.3069   0.3563   0.2997  -0.2746   0.2278  -0.1912   0.00    0.0
2019/05/19 14:30:54.000  -2956913.9239   5075881.2681   2476416.5963   6   7   0.3062   0.3555   0.2990  -0.2740   0.2273  -0.1908   0.00    0.0
2019/05/19 14:30:55.000  -2956913.9241   5075881.2666   2476416.5949   6   7   0.3055   0.3547   0.2984  -0.2734   0.2268  -0.1904   0.00    0.0
2019/05/19 14:30:56.000  -2956913.9245   5075881.2652   2476416.5936   6   7   0.3049   0.3539   0.2977  -0.2728   0.2263  -0.1899   0.00    0.0
2019/05/19 14:30:57.000  -2956913.9243   5075881.2635   2476416.5923   6   7   0.3042   0.3531   0.2971  -0.2722   0.2258  -0.1895   0.00    0.0
2019/05/19 14:30:58.000  -2956913.9229   5075881.2614   2476416.5928   6   7   0.3036   0.3524   0.2964  -0.2716   0.2253  -0.1891   0.00    0.0
2019/05/19 14:30:59.000  -2956913.9227   5075881.2601   2476416.5918   6   7   0.3029   0.3516   0.2958  -0.2710   0.2248  -0.1887   0.00    0.0
2019/05/19 14:31:00.000  -2956913.9226   5075881.2599   2476416.5901   6   7   0.3022   0.3508   0.2952  -0.2704   0.2243  -0.1883   0.00    0.0
2019/05/19 14:31:01.000  -2956913.9222   5075881.2598   2476416.5891   6   7   0.3016   0.3501   0.2945  -0.2699   0.2238  -0.1879   0.00    0.0
2019/05/19 14:31:02.000  -2956913.9247   5075881.2639   2476416.5902   6   7   0.3010   0.3493   0.2939  -0.2693   0.2233  -0.1875   0.00    0.0
2019/05/19 14:31:03.000  -2956913.9238   5075881.2616   2476416.5898   6   7   0.3003   0.3486   0.2933  -0.2687   0.2229  -0.1871   0.00    0.0
2019/05/19 14:31:04.000  -2956913.9236   5075881.2608   2476416.5891   6   7   0.2997   0.3478   0.2927  -0.2681   0.2224  -0.1867   0.00    0.0
2019/05/19 14:31:05.000  -2956913.9239   5075881.2597   2476416.5868   6   7   0.2991   0.3471   0.2921  -0.2676   0.2219  -0.1863   0.00    0.0
2019/05/19 14:31:06.000  -2956913.9232   5075881.2587   2476416.5872   6   7   0.2984   0.3464   0.2915  -0.2670   0.2214  -0.1859   0.00    0.0
2019/05/19 14:31:07.000  -2956913.9212   5075881.2551   2476416.5876   6   7   0.2978   0.3456   0.2909  -0.2665   0.2210  -0.1855   0.00    0.0
2019/05/19 14:31:08.000  -2956913.9211   5075881.2538   2476416.5864   6   7   0.2972   0.3449   0.2903  -0.2659   0.2205  -0.1852   0.00    0.0
2019/05/19 14:31:09.000  -2956913.9222   5075881.2549   2476416.5868   6   7   0.2966   0.3442   0.2897  -0.2654   0.2201  -0.1848   0.00    0.0
2019/05/19 14:31:10.000  -2956913.9210   5075881.2532   2476416.5859   6   7   0.2960   0.3435   0.2891  -0.2648   0.2196  -0.1844   0.00    0.0
2019/05/19 14:31:11.000  -2956913.9222   5075881.2552   2476416.5866   6   7   0.2954   0.3428   0.2885  -0.2643   0.2191  -0.1840   0.00    0.0
2019/05/19 14:31:12.000  -2956913.9251   5075881.2580   2476416.5877   6   7   0.2948   0.3420   0.2879  -0.2637   0.2187  -0.1836   0.00    0.0
2019/05/19 14:31:13.000  -2956913.9255   5075881.2563   2476416.5855   6   7   0.2942   0.3413   0.2873  -0.2632   0.2183  -0.1833   0.00    0.0
2019/05/19 14:31:14.000  -2956913.9264   5075881.2571   2476416.5850   6   7   0.2936   0.3407   0.2867  -0.2627   0.2178  -0.1829   0.00    0.0
2019/05/19 14:31:15.000  -2956913.9256   5075881.2554   2476416.5826   6   7   0.2930   0.3400   0.2861  -0.2621   0.2174  -0.1825   0.00    0.0
2019/05/19 14:31:16.000  -2956913.9236   5075881.2513   2476416.5798   6   7   0.2924   0.3393   0.2856  -0.2616   0.2169  -0.1822   0.00    0.0
2019/05/19 14:31:17.000  -2956913.9240   5075881.2520   2476416.5795   6   7   0.2918   0.3386   0.2850  -0.2611   0.2165  -0.1818   0.00    0.0
2019/05/19 14:31:18.000  -2956913.9231   5075881.2505   2476416.5782   6   7   0.2912   0.3379   0.2844  -0.2606   0.2161  -0.1814   0.00    0.0
2019/05/19 14:31:19.000  -2956913.9261   5075881.2524   2476416.5776   6   7   0.2907   0.3372   0.2839  -0.2601   0.2156  -0.1811   0.00    0.0
2019/05/19 14:31:20.000  -2956913.9274   5075881.2520   2476416.5766   6   7   0.2901   0.3366   0.2833  -0.2595   0.2152  -0.1807   0.00    0.0
2019/05/19 14:31:21.000  -2956913.9299   5075881.2521   2476416.5763   6   7   0.2895   0.3359   0.2828  -0.2590   0.2148  -0.1804   0.00    0.0
2019/05/19 14:31:22.000  -2956913.9307   5075881.2524   2476416.5756   6   7   0.2890   0.3352   0.2822  -0.2585   0.2143  -0.1800   0.00    0.0
2019/05/19 14:31:23.000  -2956913.9307   5075881.2513   2476416.5757   6   7   0.2884   0.3346   0.2817  -0.2580   0.2139  -0.1797   0.00    0.0
2019/05/19 14:31:24.000  -2956913.9312   5075881.2523   2476416.5753   6   7   0.2878   0.3339   0.2811  -0.2575   0.2135  -0.1793   0.00    0.0
2019/05/19 14:31:25.000  -2956913.9300   5075881.2499   2476416.5752   6   7   0.2873   0.3333   0.2806  -0.2570   0.2131  -0.1790   0.00    0.0
2019/05/19 14:31:26.000  -2956913.9323   5075881.2511   2476416.5756   6   7   0.2867   0.3326   0.2800  -0.2565   0.2127  -0.1786   0.00    0.0
2019/05/19 14:31:27.000  -2956913.9311   5075881.2506   2476416.5739   6   7   0.2862   0.3320   0.2795  -0.2560   0.2123  -0.1783   0.00    0.0
2019/05/19 14:31:28.000  -2956913.9305   5075881.2478   2476416.5723   6   7   0.2856   0.3313   0.2790  -0.2555   0.2119  -0.1779   0.00    0.0
2019/05/19 14:31:29.000  -2956913.9306   5075881.2465   2476416.5722   6   7   0.2851   0.3307   0.2784  -0.2551   0.2115  -0.1776   0.00    0.0
2019/05/19 14:31:30.000  -2956913.9321   5075881.2469   2476416.5725   6   7   0.2845   0.3300   0.2779  -0.2546   0.2110  -0.1773   0.00    0.0
2019/05/19 14:31:31.000  -2956913.9324   5075881.2467   2476416.5710   6   7   0.2840   0.3294   0.2774  -0.2541   0.2106  -0.1769   0.00    0.0
2019/05/19 14:31:32.000  -2956913.9309   5075881.2448   2476416.5700   6   7   0.2835   0.3288   0.2769  -0.2536   0.2102  -0.1766   0.00    0.0
2019/05/19 14:31:33.000  -2956913.9332   5075881.2468   2476416.5710   6   7   0.2829   0.3282   0.2763  -0.2531   0.2099  -0.1763   0.00    0.0
2019/05/19 14:31:34.000  -2956913.9345   5075881.2478   2476416.5716   6   7   0.2824   0.3275   0.2758  -0.2527   0.2095  -0.1759   0.00    0.0
2019/05/19 14:31:35.000  -2956913.9333   5075881.2466   2476416.5709   6   7   0.2819   0.3269   0.2753  -0.2522   0.2091  -0.1756   0.00    0.0
2019/05/19 14:31:36.000  -2956913.9345   5075881.2469   2476416.5694   6   7   0.2814   0.3263   0.2748  -0.2517   0.2087  -0.1753   0.00    0.0
2019/05/19 14:31:37.000  -2956913.9357   5075881.2483   2476416.5696   6   7   0.2808   0.3257   0.2743  -0.2513   0.2083  -0.1750   0.00    0.0
2019/05/19 14:31:38.000  -2956913.9368   5075881.2486   2476416.5688   6   7   0.2803   0.3251   0.2738  -0.2508   0.2079  -0.1746   0.00    0.0
2019/05/19 14:31:39.000  -2956913.9366   5075881.2488   2476416.5668   6   7   0.2798   0.3245   0.2733  -0.2503   0.2075  -0.1743   0.00    0.0
2019/05/19 14:31:40.000  -2956913.9367   5075881.2483   2476416.5662   6   7   0.2793   0.3239   0.2728  -0.2499   0.2071  -0.1740   0.00    0.0
2019/05/19 14:31:41.000  -2956913.9353   5075881.2463   2476416.5638   6   7   0.2788   0.3233   0.2723  -0.2494   0.2068  -0.1737   0.00    0.0
2019/05/19 14:31:42.000  -2956913.9358   5075881.2460   2476416.5630   6   7   0.2783   0.3227   0.2718  -0.2490   0.2064  -0.1734   0.00    0.0
2019/05/19 14:31:43.000  -2956913.9347   5075881.2433   2476416.5620   6   7   0.2778   0.3221   0.2713  -0.2485   0.2060  -0.1731   0.00    0.0
2019/05/19 14:31:44.000  -2956913.9352   5075881.2438   2476416.5631   6   7   0.2773   0.3215   0.2708  -0.2481   0.2056  -0.1728   0.00    0.0
2019/05/19 14:31:45.000  -2956913.9355   5075881.2449   2476416.5645   6   7   0.2768   0.3210   0.2704  -0.2476   0.2053  -0.1724   0.00    0.0
2019/05/19 14:31:46.000  -2956913.9355   5075881.2461   2476416.5647   6   7   0.2763   0.3204   0.2699  -0.2472   0.2049  -0.1721   0.00    0.0
2019/05/19 14:31:47.000  -2956913.9352   5075881.2468   2476416.5648   6   7   0.2758   0.3198   0.2694  -0.2468   0.2045  -0.1718   0.00    0.0
2019/05/19 14:31:48.000  -2956913.9350   5075881.2465   2476416.5642   6   7   0.2753   0.3192   0.2689  -0.2463   0.2042  -0.1715   0.00    0.0
2019/05/19 14:31:49.000  -2956913.9355   5075881.2472   2476416.5629   6   7   0.2748   0.3187   0.2684  -0.2459   0.2038  -0.1712   0.00    0.0
2019/05/19 14:31:50.000  -2956913.9343   5075881.2445   2476416.5627   6   7   0.2744   0.3181   0.2680  -0.2455   0.2034  -0.1709   0.00    0.0
2019/05/19 14:31:51.000  -2956913.9331   5075881.2430   2476416.5615   6   7   0.2739   0.3175   0.2675  -0.2450   0.2031  -0.1706   0.00    0.0
2019/05/19 14:31:52.000  -2956913.9340   5075881.2428   2476416.5604   6   7   0.2734   0.3170   0.2670  -0.2446   0.2027  -0.1703   0.00    0.0
2019/05/19 14:31:53.000  -2956913.9332   5075881.2418   2476416.5574   6   7   0.2729   0.3164   0.2666  -0.2442   0.2024  -0.1700   0.00    0.0
2019/05/19 14:31:54.000  -2956913.9332   5075881.2413   2476416.5578   6   7   0.2725   0.3159   0.2661  -0.2438   0.2020  -0.1697   0.00    0.0
2019/05/19 14:31:55.000  -2956913.9343   5075881.2422   2476416.5568   6   7   0.2720   0.3153   0.2657  -0.2433   0.2017  -0.1694   0.00    0.0
2019/05/19 14:31:56.000  -2956913.9342   5075881.2420   2476416.5562   6   7   0.2715   0.3148   0.2652  -0.2429   0.2013  -0.1691   0.00    0.0
2019/05/19 14:31:57.000  -2956913.9343   5075881.2411   2476416.5543   6   7   0.2711   0.3142   0.2648  -0.2425   0.2010  -0.1689   0.00    0.0
2019/05/19 14:31:58.000  -2956913.9332   5075881.2415   2476416.5529   6   7   0.2706   0.3137   0.2643  -0.2421   0.2006  -0.1686   0.00    0.0
2019/05/19 14:31:59.000  -2956913.9319   5075881.2401   2476416.5530   6   7   0.2701   0.3131   0.2639  -0.2417   0.2003  -0.1683   0.00    0.0
2019/05/19 14:32:00.000  -2956913.9308   5075881.2389   2476416.5506   6   7   0.2697   0.3126   0.2634  -0.2413   0.1999  -0.1680   0.00    0.0
2019/05/19 14:32:01.000  -2956913.9314   5075881.2393   2476416.5506   6   7   0.2692   0.3121   0.2630  -0.2409   0.1996  -0.1677   0.00    0.0
2019/05/19 14:32:02.000  -2956913.9319   5075881.2405   2476416.5503   6   7   0.2688   0.3115   0.2625  -0.2404   0.1992  -0.1674   0.00    0.0
2019/05/19 14:32:03.000  -2956913.9325   5075881.2392   2476416.5492   6   7   0.2683   0.3110   0.2621  -0.2400   0.1989  -0.1671   0.00    0.0
2019/05/19 14:32:04.000  -2956913.9324   5075881.2375   2476416.5467   6   7   0.2679   0.3105   0.2616  -0.2396   0.1986  -0.1669   0.00    0.0
2019/05/19 14:32:05.000  -2956913.9319   5075881.2356   2476416.5458   6   7   0.2674   0.3099   0.2612  -0.2392   0.1982  -0.1666   0.00    0.0
2019/05/19 14:32:06.000  -2956913.9303   5075881.2337   2476416.5443   6   7   0.2670   0.3094   0.2608  -0.2388   0.1979  -0.1663   0.00    0.0
2019/05/19 14:32:07.000  -2956913.9292   5075881.2320   2476416.5428   6   7   0.2665   0.3089   0.2603  -0.2385   0.1976  -0.1660   0.00    0.0
2019/05/19 14:32:08.000  -2956913.9304   5075881.2331   2476416.5431   6   7   0.2661   0.3084   0.2599  -0.2381   0.1972  -0.1658   0.00    0.0
2019/05/19 14:32:09.000  -2956913.9286   5075881.2322   2476416.5422   6   7   0.2657   0.3079   0.2595  -0.2377   0.1969  -0.1655   0.00    0.0
2019/05/19 14:32:10.000  -2956913.9280   5075881.2311   2476416.5410   6   7   0.2652   0.3074   0.2591  -0.2373   0.1966  -0.1652   0.00    0.0
2019/05/19 14:32:11.000  -2956913.9277   5075881.2314   2476416.5391   6   7   0.2648   0.3069   0.2586  -0.2369   0.1963  -0.1649   0.00    0.0
2019/05/19 14:32:12.000  -2956913.9274   5075881.2318   2476416.5379   6   7   0.2644   0.3064   0.2582  -0.2365   0.1959  -0.1647   0.00    0.0
2019/05/19 14:32:13.000  -2956913.9275   5075881.2317   2476416.5365   6   7   0.2639   0.3058   0.2578  -0.2361   0.1956  -0.1644   0.00    0.0
2019/05/19 14:32:14.000  -2956913.9259   5075881.2289   2476416.5342   6   7   0.2635   0.3053   0.2574  -0.2357   0.1953  -0.1641   0.00    0.0
2019/05/19 14:32:15.000  -2956913.9255   5075881.2285   2476416.5330   6   7   0.2631   0.3048   0.2570  -0.2354   0.1950  -0.1639   0.00    0.0
2019/05/19 14:32:16.000  -2956913.9259   5075881.2285   2476416.5325   6   7   0.2627   0.3044   0.2566  -0.2350   0.1947  -0.1636   0.00    0.0
2019/05/19 14:32:17.000  -2956913.9273   5075881.2309   2476416.5333   6   7   0.2622   0.3039   0.2562  -0.2346   0.1944  -0.1634   0.00    0.0
2019/05/19 14:32:18.000  -2956913.9269   5075881.2306   2476416.5327   6   7   0.2618   0.3034   0.2557  -0.2342   0.1940  -0.1631   0.00    0.0
2019/05/19 14:32:19.000  -2956913.9271   5075881.2296   2476416.5312   6   7   0.2614   0.3029   0.2553  -0.2339   0.1937  -0.1628   0.00    0.0
2019/05/19 14:32:20.000  -2956913.9270   5075881.2290   2476416.5317   6   7   0.2610   0.3024   0.2549  -0.2335   0.1934  -0.1626   0.00    0.0
2019/05/19 14:32:21.000  -2956913.9261   5075881.2266   2476416.5309   6   7   0.2606   0.3019   0.2545  -0.2331   0.1931  -0.1623   0.00    0.0
2019/05/19 14:32:22.000  -2956913.9269   5075881.2267   2476416.5316   6   7   0.2602   0.3014   0.2541  -0.2328   0.1928  -0.1621   0.00    0.0
2019/05/19 14:32:23.000  -2956913.9252   5075881.2243   2476416.5300   6   7   0.2598   0.3009   0.2537  -0.2324   0.1925  -0.1618   0.00    0.0
2019/05/19 14:32:24.000  -2956913.9247   5075881.2224   2476416.5279   6   7   0.2594   0.3005   0.2533  -0.2320   0.1922  -0.1616   0.00    0.0
2019/05/19 14:32:25.000  -2956913.9233   5075881.2210   2476416.5262   6   7   0.2590   0.3000   0.2529  -0.2317   0.1919  -0.1613   0.00    0.0
2019/05/19 14:32:26.000  -2956913.9235   5075881.2205   2476416.5239   6   7   0.2585   0.2995   0.2526  -0.2313   0.1916  -0.1611   0.00    0.0
2019/05/19 14:32:27.000  -2956913.9242   5075881.2212   2476416.5239   6   7   0.2581   0.2991   0.2522  -0.2309   0.1913  -0.1608   0.00    0.0
2019/05/19 14:32:28.000  -2956913.9257   5075881.2229   2476416.5240   6   7   0.2578   0.2986   0.2518  -0.2306   0.1910  -0.1606   0.00    0.0
2019/05/19 14:32:29.000  -2956913.9249   5075881.2218   2476416.5229   6   7   0.2574   0.2981   0.2514  -0.2302   0.1907  -0.1603   0.00    0.0
2019/05/19 14:32:30.000  -2956913.9247   5075881.2205   2476416.5231   6   7   0.2570   0.2977   0.2510  -0.2299   0.1904  -0.1601   0.00    0.0
2019/05/19 14:32:31.000  -2956913.9248   5075881.2203   2476416.5224   6   7   0.2566   0.2972   0.2506  -0.2295   0.1901  -0.1598   0.00    0.0
2019/05/19 14:32:32.000  -2956913.9258   5075881.2213   2476416.5230   6   7   0.2562   0.2967   0.2502  -0.2292   0.1898  -0.1596   0.00    0.0
2019/05/19 14:32:33.000  -2956913.9261   5075881.2207   2476416.5226   6   7   0.2558   0.2963   0.2499  -0.2288   0.1895  -0.1593   0.00    0.0
2019/05/19 14:32:34.000  -2956913.9257   5075881.2202   2476416.5220   6   7   0.2554   0.2958   0.2495  -0.2285   0.1892  -0.1591   0.00    0.0
2019/05/19 14:32:35.000  -2956913.9246   5075881.2184   2476416.5202   6   7   0.2550   0.2954   0.2491  -0.2281   0.1889  -0.1588   0.00    0.0
2019/05/19 14:32:36.000  -2956913.9252   5075881.2186   2476416.5189   6   7   0.2546   0.2949   0.2487  -0.2278   0.1887  -0.1586   0.00    0.0
2019/05/19 14:32:37.000  -2956913.9258   5075881.2190   2476416.5178   6   7   0.2543   0.2945   0.2484  -0.2275   0.1884  -0.1584   0.00    0.0
2019/05/19 14:32:38.000  -2956913.9265   5075881.2192   2476416.5183   6   7   0.2539   0.2940   0.2480  -0.2271   0.1881  -0.1581   0.00    0.0
2019/05/19 14:32:39.000  -2956913.9271   5075881.2199   2476416.5180   6   7   0.2535   0.2936   0.2476  -0.2268   0.1878  -0.1579   0.00    0.0
2019/05/19 14:32:40.000  -2956913.9252   5075881.2172   2476416.5154   6   7   0.2531   0.2931   0.2472  -0.2264   0.1875  -0.1577   0.00    0.0
2019/05/19 14:32:41.000  -2956913.9252   5075881.2175   2476416.5137   6   7   0.2527   0.2927   0.2469  -0.2261   0.1872  -0.1574   0.00    0.0
2019/05/19 14:32:42.000  -2956913.9267   5075881.2190   2476416.5141   6   7   0.2524   0.2923   0.2465  -0.2258   0.1870  -0.1572   0.00    0.0
2019/05/19 14:32:43.000  -2956913.9266   5075881.2189   2476416.5132   6   7   0.2520   0.2918   0.2462  -0.2254   0.1867  -0.1570   0.00    0.0
2019/05/19 14:32:44.000  -2956913.9265   5075881.2184   2476416.5125   6   7   0.2516   0.2914   0.2458  -0.2251   0.1864  -0.1567   0.00    0.0
2019/05/19 14:32:45.000  -2956913.9271   5075881.2187   2476416.5133   6   7   0.2513   0.2910   0.2454  -0.2248   0.1861  -0.1565   0.00    0.0
2019/05/19 14:32:46.000  -2956913.9264   5075881.2183   2476416.5124   6   7   0.2509   0.2905   0.2451  -0.2244   0.1859  -0.1563   0.00    0.0
2019/05/19 14:32:47.000  -2956913.9256   5075881.2169   2476416.5122   6   7   0.2505   0.2901   0.2447  -0.2241   0.1856  -0.1560   0.00    0.0
2019/05/19 14:32:48.000  -2956913.9229   5075881.2131   2476416.5090   6   7   0.2502   0.2897   0.2444  -0.2238   0.1853  -0.1558   0.00    0.0
2019/05/19 14:32:49.000  -2956913.9227   5075881.2115   2476416.5082   6   7   0.2498   0.2892   0.2440  -0.2235   0.1850  -0.1556   0.00    0.0
2019/05/19 14:32:50.000  -2956913.9214   5075881.2085   2476416.5064   6   7   0.2494   0.2888   0.2437  -0.2231   0.1848  -0.1554   0.00    0.0
2019/05/19 14:32:51.000  -2956913.9216   5075881.2084   2476416.5063   6   7   0.2491   0.2884   0.2433  -0.2228   0.1845  -0.1551   0.00    0.0
2019/05/19 14:32:52.000  -2956913.9217   5075881.2091   2476416.5058   6   7   0.2487   0.2880   0.2430  -0.2225   0.1842  -0.1549   0.00    0.0
2019/05/19 14:32:53.000  -2956913.9208   5075881.2079   2476416.5054   6   7   0.2484   0.2876   0.2426  -0.2222   0.1840  -0.1547   0.00    0.0
2019/05/19 14:32:54.000  -2956913.9226   5075881.2085   2476416.5056   6   7   0.2480   0.2872   0.2423  -0.2219   0.1837  -0.1545   0.00    0.0
2019/05/19 14:32:55.000  -2956913.9215   5075881.2071   2476416.5052   6   7   0.2477   0.2867   0.2419  -0.2216   0.1834  -0.1543   0.00    0.0
2019/05/19 14:32:56.000  -2956913.9206   5075881.2057   2476416.5037   6   7   0.2473   0.2863   0.2416  -0.2212   0.1832  -0.1540   0.00    0.0
2019/05/19 14:32:57.000  -2956913.9209   5075881.2053   2476416.5038   6   7   0.2470   0.2859   0.2412  -0.2209   0.1829  -0.1538   0.00    0.0
2019/05/19 14:32:58.000  -2956913.9215   5075881.2064   2476416.5038   6   7   0.2466   0.2855   0.2409  -0.2206   0.1827  -0.1536   0.00    0.0
2019/05/19 14:32:59.000  -2956913.9210   5075881.2057   2476416.5035   6   7   0.2463   0.2851   0.2406  -0.2203   0.1824  -0.1534   0.00    0.0
2019/05/19 14:33:00.000  -2956913.9206   5075881.2049   2476416.5025   6   7   0.2459   0.2847   0.2402  -0.2200   0.1821  -0.1532   0.00    0.0
2019/05/19 14:33:01.000  -2956913.9202   5075881.2036   2476416.5011   6   7   0.2456   0.2843   0.2399  -0.2197   0.1819  -0.1530   0.00    0.0
2019/05/19 14:33:02.000  -2956913.9204   5075881.2029   2476416.5001   6   7   0.2452   0.2839   0.2396  -0.2194   0.1816  -0.1528   0.00    0.0
2019/05/19 14:33:03.000  -2956913.9200   5075881.2021   2476416.4992   6   7   0.2449   0.2835   0.2392  -0.2191   0.1814  -0.1525   0.00    0.0
2019/05/19 14:33:04.000  -2956913.9188   5075881.2007   2476416.4979   6   7   0.2446   0.2831   0.2389  -0.2188   0.1811  -0.1523   0.00    0.0
2019/05/19 14:33:05.000  -2956913.9187   5075881.2000   2476416.4986   6   7   0.2442   0.2827   0.2386  -0.2185   0.1809  -0.1521   0.00    0.0
2019/05/19 14:33:06.000  -2956913.9187   5075881.1994   2476416.4992   6   7   0.2439   0.2823   0.2382  -0.2182   0.1806  -0.1519   0.00    0.0
2019/05/19 14:33:07.000  -2956913.9184   5075881.1991   2476416.4993   6   7   0.2436   0.2819   0.2379  -0.2179   0.1804  -0.1517   0.00    0.0
2019/05/19 14:33:08.000  -2956913.9191   5075881.1993   2476416.5002   6   7   0.2432   0.2815   0.2376  -0.2176   0.1801  -0.1515   0.00    0.0
2019/05/19 14:33:09.000  -2956913.9189   5075881.1991   2476416.4991   6   7   0.2429   0.2811   0.2373  -0.2173   0.1799  -0.1513   0.00    0.0
2019/05/19 14:33:10.000  -2956913.9198   5075881.1996   2476416.4994   6   7   0.2426   0.2807   0.2369  -0.2170   0.1796  -0.1511   0.00    0.0
2019/05/19 14:33:11.000  -2956913.9193   5075881.1985   2476416.4989   6   7   0.2422   0.2804   0.2366  -0.2167   0.1794  -0.1509   0.00    0.0
2019/05/19 14:33:12.000  -2956913.9192   5075881.1983   2476416.4985   6   7   0.2419   0.2800   0.2363  -0.2164   0.1791  -0.1507   0.00    0.0
2019/05/19 14:33:13.000  -2956913.9189   5075881.1973   2476416.4980   6   7   0.2416   0.2796   0.2360  -0.2161   0.1789  -0.1505   0.00    0.0
2019/05/19 14:33:14.000  -2956913.9182   5075881.1959   2476416.4971   6   7   0.2413   0.2792   0.2357  -0.2158   0.1786  -0.1503   0.00    0.0
2019/05/19 14:33:15.000  -2956913.9196   5075881.1965   2476416.4971   6   7   0.2409   0.2788   0.2354  -0.2155   0.1784  -0.1501   0.00    0.0
2019/05/19 14:33:16.000  -2956913.9203   5075881.1963   2476416.4974   6   7   0.2406   0.2784   0.2350  -0.2152   0.1781  -0.1499   0.00    0.0
2019/05/19 14:33:17.000  -2956913.9205   5075881.1953   2476416.4974   6   7   0.2403   0.2781   0.2347  -0.2150   0.1779  -0.1497   0.00    0.0
2019/05/19 14:33:18.000  -2956913.9202   5075881.1941   2476416.4961   6   7   0.2400   0.2777   0.2344  -0.2147   0.1777  -0.1495   0.00    0.0
2019/05/19 14:33:19.000  -2956913.9201   5075881.1927   2476416.4943   6   7   0.2397   0.2773   0.2341  -0.2144   0.1774  -0.1493   0.00    0.0
2019/05/19 14:33:20.000  -2956913.9203   5075881.1915   2476416.4932   6   7   0.2393   0.2769   0.2338  -0.2141   0.1772  -0.1491   0.00    0.0
2019/05/19 14:33:21.000  -2956913.9196   5075881.1905   2476416.4928   6   7   0.2390   0.2766   0.2335  -0.2138   0.1770  -0.1489   0.00    0.0
2019/05/19 14:33:22.000  -2956913.9185   5075881.1887   2476416.4917   6   7   0.2387   0.2762   0.2332  -0.2135   0.1767  -0.1487   0.00    0.0
2019/05/19 14:33:23.000  -2956913.9178   5075881.1872   2476416.4903   6   7   0.2384   0.2758   0.2329  -0.2133   0.1765  -0.1485   0.00    0.0
2019/05/19 14:33:24.000  -2956913.9173   5075881.1870   2476416.4892   6   7   0.2381   0.2755   0.2326  -0.2130   0.1763  -0.1483   0.00    0.0
2019/05/19 14:33:25.000  -2956913.9162   5075881.1847   2476416.4869   6   7   0.2378   0.2751   0.2323  -0.2127   0.1760  -0.1481   0.00    0.0
2019/05/19 14:33:26.000  -2956913.9150   5075881.1841   2476416.4856   6   7   0.2375   0.2747   0.2320  -0.2124   0.1758  -0.1479   0.00    0.0
2019/05/19 14:33:27.000  -2956913.9155   5075881.1832   2476416.4842   6   7   0.2372   0.2744   0.2317  -0.2122   0.1756  -0.1477   0.00    0.0
2019/05/19 14:33:28.000  -2956913.9155   5075881.1827   2476416.4834   6   7   0.2369   0.2740   0.2314  -0.2119   0.1753  -0.1475   0.00    0.0
2019/05/19 14:33:29.000  -2956913.9145   5075881.1807   2476416.4814   6   7   0.2365   0.2737   0.2311  -0.2116   0.1751  -0.1473   0.00    0.0
2019/05/19 14:33:30.000  -2956913.9147   5075881.1804   2476416.4813   6   7   0.2362   0.2733   0.2308  -0.2113   0.1749  -0.1471   0.00    0.0
2019/05/19 14:33:31.000  -2956913.9149   5075881.1800   2476416.4808   6   7   0.2359   0.2729   0.2305  -0.2111   0.1746  -0.1469   0.00    0.0
2019/05/19 14:33:32.000  -2956913.9138   5075881.1790   2476416.4795   6   7   0.2356   0.2726   0.2302  -0.2108   0.1744  -0.1468   0.00    0.0
2019/05/19 14:33:33.000  -2956913.9140   5075881.1788   2476416.4798   6   7   0.2353   0.2722   0.2299  -0.2105   0.1742  -0.1466   0.00    0.0
2019/05/19 14:33:34.000  -2956913.9140   5075881.1786   2476416.4786   6   7   0.2350   0.2719   0.2296  -0.2103   0.1740  -0.1464   0.00    0.0
2019/05/19 14:33:35.000  -2956913.9123   5075881.1755   2476416.4766   6   7   0.2347   0.2715   0.2293  -0.2100   0.1737  -0.1462   0.00    0.0
2019/05/19 14:33:36.000  -2956913.9122   5075881.1746   2476416.4762   6   7   0.2344   0.2712   0.2290  -0.2097   0.1735  -0.1460   0.00    0.0
2019/05/19 14:33:37.000  -2956913.9127   5075881.1742   2476416.4764   6   7   0.2342   0.2708   0.2287  -0.2095   0.1733  -0.1458   0.00    0.0
2019/05/19 14:33:38.000  -2956913.9123   5075881.1734   2476416.4750   6   7   0.2339   0.2705   0.2284  -0.2092   0.1731  -0.1456   0.00    0.0
2019/05/19 14:33:39.000  -2956913.9122   5075881.1729   2476416.4743   6   7   0.2336   0.2701   0.2281  -0.2089   0.1729  -0.1455   0.00    0.0
2019/05/19 14:33:40.000  -2956913.9116   5075881.1707   2476416.4728   6   7   0.2333   0.2698   0.2279  -0.2087   0.1726  -0.1453   0.00    0.0
2019/05/19 14:33:41.000  -2956913.9106   5075881.1692   2476416.4717   6   7   0.2330   0.2695   0.2276  -0.2084   0.1724  -0.1451   0.00    0.0
2019/05/19 14:33:42.000  -2956913.9109   5075881.1680   2476416.4713   6   7   0.2327   0.2691   0.2273  -0.2081   0.1722  -0.1449   0.00    0.0
2019/05/19 14:33:43.000  -2956913.9105   5075881.1674   2476416.4697   6   7   0.2324   0.2688   0.2270  -0.2079   0.1720  -0.1447   0.00    0.0
2019/05/19 14:33:44.000  -2956913.9114   5075881.1677   2476416.4696   6   7   0.2321   0.2684   0.2267  -0.2076   0.1718  -0.1446   0.00    0.0
2019/05/19 14:33:45.000  -2956913.9109   5075881.1665   2476416.4692   6   7   0.2318   0.2681   0.2264  -0.2074   0.1716  -0.1444   0.00    0.0
2019/05/19 14:33:46.000  -2956913.9102   5075881.1649   2476416.4685   6   7   0.2315   0.2678   0.2262  -0.2071   0.1713  -0.1442   0.00    0.0
2019/05/19 14:33:47.000  -2956913.9095   5075881.1642   2476416.4680   6   7   0.2313   0.2674   0.2259  -0.2069   0.1711  -0.1440   0.00    0.0
2019/05/19 14:33:48.000  -2956913.9097   5075881.1635   2476416.4676   6   7   0.2310   0.2671   0.2256  -0.2066   0.1709  -0.1438   0.00    0.0
2019/05/19 14:33:49.000  -2956913.9100   5075881.1623   2476416.4669   6   7   0.2307   0.2668   0.2253  -0.2064   0.1707  -0.1437   0.00    0.0
2019/05/19 14:33:50.000  -2956913.9106   5075881.1623   2476416.4655   6   7   0.2304   0.2664   0.2251  -0.2061   0.1705  -0.1435   0.00    0.0
2019/05/19 14:33:51.000  -2956913.9093   5075881.1599   2476416.4634   6   7   0.2301   0.2661   0.2248  -0.2059   0.1703  -0.1433   0.00    0.0
2019/05/19 14:33:52.000  -2956913.9089   5075881.1587   2476416.4627   6   7   0.2298   0.2658   0.2245  -0.2056   0.1701  -0.1431   0.00    0.0
2019/05/19 14:33:53.000  -2956913.9096   5075881.1591   2476416.4633   6   7   0.2296   0.2654   0.2242  -0.2054   0.1699  -0.1430   0.00    0.0
2019/05/19 14:33:54.000  -2956913.9087   5075881.1584   2476416.4627   6   7   0.2293   0.2651   0.2240  -0.2051   0.1697  -0.1428   0.00    0.0
2019/05/19 14:33:55.000  -2956913.9079   5075881.1570   2476416.4615   6   7   0.2290   0.2648   0.2237  -0.2049   0.1694  -0.1426   0.00    0.0
2019/05/19 14:33:56.000  -2956913.9073   5075881.1557   2476416.4608   6   7   0.2287   0.2645   0.2234  -0.2046   0.1692  -0.1424   0.00    0.0
2019/05/19 14:33:57.000  -2956913.9063   5075881.1547   2476416.4597   6   7   0.2285   0.2642   0.2232  -0.2044   0.1690  -0.1423   0.00    0.0
2019/05/19 14:33:58.000  -2956913.9058   5075881.1537   2476416.4585   6   7   0.2282   0.2638   0.2229  -0.2041   0.1688  -0.1421   0.00    0.0
2019/05/19 14:33:59.000  -2956913.9059   5075881.1523   2476416.4572   6   7   0.2279   0.2635   0.2226  -0.2039   0.1686  -0.1419   0.00    0.0
2019/05/19 14:34:00.000  -2956913.9055   5075881.1512   2476416.4549   6   7   0.2277   0.2632   0.2224  -0.2036   0.1684  -0.1418   0.00    0.0
2019/05/19 14:34:01.000  -2956913.9041   5075881.1500   2476416.4529   6   7   0.2274   0.2629   0.2221  -0.2034   0.1682  -0.1416   0.00    0.0
2019/05/19 14:34:02.000  -2956913.9041   5075881.1498   2476416.4519   6   7   0.2271   0.2626   0.2218  -0.2032   0.1680  -0.1414   0.00    0.0
