% program   : RTKPOST ver.demo5 b31
% inp file  : C:\Users\User\Desktop\NCKU_DATA\0519\NCKU_trimble.obs
% inp file  : C:\Users\User\Desktop\NCKU_DATA\0519\NCKU_trimble.nav
% obs start : 2019/05/19 14:27:11.0 GPST (week2054  52031.0s)
% obs end   : 2019/05/19 15:33:32.0 GPST (week2054  56012.0s)
% pos mode  : ppp-static
% solution  : forward
% elev mask : 15.0 deg
% dynamics  : on
% tidecorr  : off
% tropo opt : saastamoinen
% ephemeris : broadcast
% antenna1  :                       ( 0.0000  0.0000  0.0000)
%
% (lat/lon/height=WGS84/ellipsoidal,Q=1:fix,2:float,3:sbas,4:dgps,5:single,6:ppp,ns=# of satellites)
%  GPST                  latitude(deg) longitude(deg)  height(m)   Q  ns   sdn(m)   sde(m)   sdu(m)  sdne(m)  sdeu(m)  sdun(m) age(s)  ratio
2019/05/19 14:27:11.000   22.996648192  120.222590573    97.2675   6   7   8.3013   6.8502  14.9923  -1.5297   6.5496   1.8736   0.00    0.0
2019/05/19 14:27:12.000   22.996653791  120.222589081    97.5495   6   7   6.1554   5.0979  11.2378  -1.2359   4.8770   1.3508   0.00    0.0
2019/05/19 14:27:13.000   22.996654323  120.222588076    97.9768   6   7   5.1119   4.2396   9.3722  -1.0572   4.0568   1.1089   0.00    0.0
2019/05/19 14:27:14.000   22.996654727  120.222586629    97.8894   6   7   4.4659   3.7066   8.2062  -0.9376   3.5472   0.9627   0.00    0.0
2019/05/19 14:27:15.000   22.996652551  120.222585774    97.9703   6   7   4.0157   3.3345   7.3893  -0.8508   3.1915   0.8623   0.00    0.0
2019/05/19 14:27:16.000   22.996652370  120.222585078    98.1043   6   7   3.6790   3.0559   6.7761  -0.7843   2.9250   0.7878   0.00    0.0
2019/05/19 14:27:17.000   22.996653582  120.222584646    98.3621   6   7   3.4150   2.8372   6.2940  -0.7312   2.7158   0.7298   0.00    0.0
2019/05/19 14:27:18.000   22.996653808  120.222585223    98.6739   6   7   3.2007   2.6596   5.9020  -0.6876   2.5460   0.6829   0.00    0.0
2019/05/19 14:27:19.000   22.996652555  120.222585932    98.6319   6   7   3.0223   2.5117   5.5752  -0.6510   2.4045   0.6441   0.00    0.0
2019/05/19 14:27:20.000   22.996652348  120.222585430    98.6460   6   7   2.8707   2.3860   5.2973  -0.6197   2.2843   0.6111   0.00    0.0
2019/05/19 14:27:21.000   22.996652237  120.222584968    98.6988   6   7   2.7399   2.2775   5.0572  -0.5925   2.1805   0.5828   0.00    0.0
2019/05/19 14:27:22.000   22.996652923  120.222584878    98.7502   6   7   2.6255   2.1826   4.8471  -0.5686   2.0897   0.5580   0.00    0.0
2019/05/19 14:27:23.000   22.996653655  120.222584576    98.8844   6   7   2.5243   2.0986   4.6611  -0.5474   2.0094   0.5362   0.00    0.0
2019/05/19 14:27:24.000   22.996653310  120.222584880    98.7181   6   7   2.4340   2.0237   4.4950  -0.5284   1.9377   0.5167   0.00    0.0
2019/05/19 14:27:25.000   22.996653229  120.222584353    98.7260   6   7   2.3528   1.9562   4.3455  -0.5112   1.8731   0.4992   0.00    0.0
2019/05/19 14:27:26.000   22.996653134  120.222584487    98.7975   6   7   2.2791   1.8951   4.2100  -0.4956   1.8147   0.4833   0.00    0.0
2019/05/19 14:27:27.000   22.996652969  120.222584645    98.8223   6   7   2.2120   1.8394   4.0864  -0.4814   1.7614   0.4689   0.00    0.0
2019/05/19 14:27:28.000   22.996653367  120.222584296    98.8884   6   7   2.1505   1.7883   3.9731  -0.4684   1.7125   0.4557   0.00    0.0
2019/05/19 14:27:29.000   22.996653350  120.222584401    98.8513   6   7   2.0939   1.7413   3.8688  -0.4563   1.6675   0.4435   0.00    0.0
2019/05/19 14:27:30.000   22.996653450  120.222584731    98.8253   6   7   2.0415   1.6978   3.7722  -0.4451   1.6259   0.4322   0.00    0.0
2019/05/19 14:27:31.000   22.996653272  120.222584612    98.8758   6   7   1.9929   1.6574   3.6825  -0.4348   1.5872   0.4218   0.00    0.0
2019/05/19 14:27:32.000   22.996653598  120.222584777    98.8459   6   7   1.9475   1.6197   3.5990  -0.4251   1.5512   0.4120   0.00    0.0
2019/05/19 14:27:33.000   22.996654116  120.222584736    98.8672   6   7   1.9052   1.5846   3.5208  -0.4160   1.5176   0.4029   0.00    0.0
2019/05/19 14:27:34.000   22.996654468  120.222584635    98.8051   6   7   1.8655   1.5516   3.4476  -0.4075   1.4860   0.3944   0.00    0.0
2019/05/19 14:27:35.000   22.996654305  120.222584610    98.7705   6   7   1.8282   1.5206   3.3787  -0.3996   1.4564   0.3864   0.00    0.0
2019/05/19 14:27:36.000   22.996654588  120.222584495    98.7293   6   7   1.7930   1.4914   3.3138  -0.3920   1.4284   0.3788   0.00    0.0
2019/05/19 14:27:37.000   22.996654604  120.222584339    98.6336   6   7   1.7598   1.4638   3.2526  -0.3849   1.4020   0.3717   0.00    0.0
2019/05/19 14:27:38.000   22.996654393  120.222584408    98.5470   6   7   1.7284   1.4377   3.1945  -0.3782   1.3771   0.3649   0.00    0.0
2019/05/19 14:27:39.000   22.996654316  120.222584459    98.5310   6   7   1.6986   1.4129   3.1395  -0.3718   1.3534   0.3585   0.00    0.0
2019/05/19 14:27:40.000   22.996654359  120.222584690    98.4757   6   7   1.6702   1.3894   3.0873  -0.3657   1.3309   0.3524   0.00    0.0
2019/05/19 14:27:41.000   22.996654281  120.222584682    98.4304   6   7   1.6433   1.3670   3.0375  -0.3599   1.3095   0.3466   0.00    0.0
2019/05/19 14:27:42.000   22.996654535  120.222584611    98.5026   6   7   1.6176   1.3457   2.9901  -0.3544   1.2891   0.3411   0.00    0.0
2019/05/19 14:27:43.000   22.996654624  120.222584479    98.4879   6   7   1.5931   1.3253   2.9448  -0.3491   1.2696   0.3358   0.00    0.0
2019/05/19 14:27:44.000   22.996654822  120.222584460    98.4792   6   7   1.5697   1.3059   2.9016  -0.3441   1.2510   0.3307   0.00    0.0
2019/05/19 14:27:45.000   22.996655195  120.222584541    98.5201   6   7   1.5473   1.2872   2.8601  -0.3392   1.2332   0.3259   0.00    0.0
2019/05/19 14:27:46.000   22.996655290  120.222584419    98.5127   6   7   1.5258   1.2694   2.8204  -0.3346   1.2161   0.3213   0.00    0.0
2019/05/19 14:27:47.000   22.996655247  120.222584506    98.5071   6   7   1.5052   1.2523   2.7824  -0.3302   1.1997   0.3168   0.00    0.0
2019/05/19 14:27:48.000   22.996655424  120.222584576    98.5197   6   7   1.4854   1.2358   2.7458  -0.3259   1.1840   0.3125   0.00    0.0
2019/05/19 14:27:49.000   22.996655444  120.222584349    98.4547   6   7   1.4663   1.2200   2.7106  -0.3218   1.1689   0.3084   0.00    0.0
2019/05/19 14:27:50.000   22.996655362  120.222584459    98.4548   6   7   1.4480   1.2048   2.6767  -0.3178   1.1543   0.3045   0.00    0.0
2019/05/19 14:27:51.000   22.996655386  120.222584437    98.4531   6   7   1.4303   1.1901   2.6441  -0.3140   1.1403   0.3006   0.00    0.0
2019/05/19 14:27:52.000   22.996655285  120.222584393    98.4928   6   7   1.4133   1.1760   2.6126  -0.3104   1.1267   0.2969   0.00    0.0
2019/05/19 14:27:53.000   22.996655249  120.222584476    98.5008   6   7   1.3969   1.1623   2.5823  -0.3068   1.1137   0.2934   0.00    0.0
2019/05/19 14:27:54.000   22.996655266  120.222584579    98.5661   6   7   1.3810   1.1491   2.5529  -0.3034   1.1011   0.2899   0.00    0.0
2019/05/19 14:27:55.000   22.996655430  120.222584657    98.5935   6   7   1.3657   1.1364   2.5246  -0.3001   1.0889   0.2866   0.00    0.0
2019/05/19 14:27:56.000   22.996655471  120.222584602    98.5407   6   7   1.3508   1.1241   2.4971  -0.2969   1.0771   0.2834   0.00    0.0
2019/05/19 14:27:57.000   22.996655497  120.222584508    98.5786   6   7   1.3365   1.1121   2.4706  -0.2938   1.0657   0.2802   0.00    0.0
2019/05/19 14:27:58.000   22.996655510  120.222584379    98.5508   6   7   1.3225   1.1006   2.4449  -0.2908   1.0546   0.2772   0.00    0.0
2019/05/19 14:27:59.000   22.996655670  120.222584266    98.5407   6   7   1.3091   1.0894   2.4199  -0.2879   1.0439   0.2743   0.00    0.0
2019/05/19 14:28:00.000   22.996655725  120.222584090    98.5548   6   7   1.2960   1.0785   2.3957  -0.2851   1.0335   0.2714   0.00    0.0
2019/05/19 14:28:01.000   22.996655742  120.222584035    98.5683   6   7   1.2833   1.0680   2.3722  -0.2823   1.0234   0.2686   0.00    0.0
2019/05/19 14:28:02.000   22.996655778  120.222583910    98.5793   6   7   1.2709   1.0577   2.3494  -0.2797   1.0136   0.2659   0.00    0.0
2019/05/19 14:28:03.000   22.996655944  120.222583863    98.5823   6   7   1.2589   1.0478   2.3272  -0.2771   1.0041   0.2633   0.00    0.0
2019/05/19 14:28:04.000   22.996655979  120.222583791    98.6059   6   7   1.2473   1.0381   2.3057  -0.2746   0.9949   0.2608   0.00    0.0
2019/05/19 14:28:05.000   22.996655959  120.222583726    98.6225   6   7   1.2359   1.0287   2.2847  -0.2721   0.9859   0.2583   0.00    0.0
2019/05/19 14:28:06.000   22.996655965  120.222583690    98.6310   6   7   1.2249   1.0195   2.2643  -0.2697   0.9771   0.2558   0.00    0.0
2019/05/19 14:28:07.000   22.996656080  120.222583559    98.6393   6   7   1.2142   1.0106   2.2445  -0.2674   0.9686   0.2535   0.00    0.0
2019/05/19 14:28:08.000   22.996656047  120.222583408    98.6588   6   7   1.2037   1.0019   2.2251  -0.2652   0.9603   0.2512   0.00    0.0
2019/05/19 14:28:09.000   22.996656059  120.222583421    98.6590   6   7   1.1935   0.9934   2.2062  -0.2630   0.9522   0.2489   0.00    0.0
2019/05/19 14:28:10.000   22.996656204  120.222583492    98.6606   6   7   1.1835   0.9852   2.1878  -0.2608   0.9443   0.2467   0.00    0.0
2019/05/19 14:28:11.000   22.996656033  120.222583469    98.6461   6   7   1.1738   0.9771   2.1699  -0.2587   0.9366   0.2446   0.00    0.0
2019/05/19 14:28:12.000   22.996656032  120.222583349    98.6572   6   7   1.1644   0.9693   2.1524  -0.2567   0.9290   0.2425   0.00    0.0
2019/05/19 14:28:13.000   22.996656259  120.222583224    98.6494   6   7   1.1551   0.9616   2.1353  -0.2547   0.9217   0.2404   0.00    0.0
2019/05/19 14:28:14.000   22.996656277  120.222583168    98.6910   6   7   1.1461   0.9541   2.1186  -0.2528   0.9145   0.2384   0.00    0.0
2019/05/19 14:28:15.000   22.996656407  120.222583183    98.6988   6   7   1.1373   0.9468   2.1023  -0.2509   0.9075   0.2365   0.00    0.0
2019/05/19 14:28:16.000   22.996656519  120.222583094    98.7260   6   7   1.1287   0.9396   2.0864  -0.2490   0.9007   0.2346   0.00    0.0
2019/05/19 14:28:17.000   22.996656650  120.222582998    98.7458   6   7   1.1202   0.9326   2.0708  -0.2472   0.8940   0.2327   0.00    0.0
2019/05/19 14:28:18.000   22.996656641  120.222582931    98.7735   6   7   1.1120   0.9258   2.0555  -0.2454   0.8875   0.2308   0.00    0.0
2019/05/19 14:28:19.000   22.996656741  120.222582924    98.7515   6   7   1.1039   0.9191   2.0406  -0.2437   0.8811   0.2290   0.00    0.0
2019/05/19 14:28:20.000   22.996656809  120.222582946    98.7560   6   7   1.0960   0.9126   2.0260  -0.2420   0.8748   0.2273   0.00    0.0
2019/05/19 14:28:21.000   22.996656888  120.222582959    98.7856   6   7   1.0883   0.9062   2.0117  -0.2403   0.8687   0.2255   0.00    0.0
2019/05/19 14:28:22.000   22.996656899  120.222582965    98.8232   6   7   1.0808   0.8999   1.9978  -0.2387   0.8627   0.2239   0.00    0.0
2019/05/19 14:28:23.000   22.996656920  120.222583019    98.8247   6   7   1.0733   0.8938   1.9841  -0.2371   0.8568   0.2222   0.00    0.0
2019/05/19 14:28:24.000   22.996656898  120.222582968    98.8460   6   7   1.0661   0.8877   1.9706  -0.2355   0.8511   0.2206   0.00    0.0
2019/05/19 14:28:25.000   22.996656781  120.222582899    98.8760   6   7   1.0590   0.8818   1.9575  -0.2340   0.8454   0.2189   0.00    0.0
2019/05/19 14:28:26.000   22.996656700  120.222582926    98.8908   6   7   1.0520   0.8761   1.9446  -0.2325   0.8399   0.2174   0.00    0.0
2019/05/19 14:28:27.000   22.996656577  120.222582981    98.8988   6   7   1.0452   0.8704   1.9319  -0.2310   0.8345   0.2158   0.00    0.0
2019/05/19 14:28:28.000   22.996656652  120.222582932    98.9003   6   7   1.0385   0.8648   1.9195  -0.2296   0.8291   0.2143   0.00    0.0
2019/05/19 14:28:29.000   22.996656582  120.222582771    98.8786   6   7   1.0319   0.8594   1.9074  -0.2282   0.8239   0.2128   0.00    0.0
2019/05/19 14:28:30.000   22.996656478  120.222582655    98.8734   6   7   1.0254   0.8540   1.8954  -0.2268   0.8188   0.2113   0.00    0.0
2019/05/19 14:28:31.000   22.996656497  120.222582634    98.8698   6   7   1.0191   0.8488   1.8837  -0.2254   0.8138   0.2099   0.00    0.0
2019/05/19 14:28:32.000   22.996656501  120.222582646    98.8663   6   7   1.0129   0.8436   1.8722  -0.2241   0.8088   0.2085   0.00    0.0
2019/05/19 14:28:33.000   22.996656387  120.222582629    98.8654   6   7   1.0067   0.8385   1.8609  -0.2228   0.8040   0.2071   0.00    0.0
2019/05/19 14:28:34.000   22.996656269  120.222582589    98.8649   6   7   1.0007   0.8336   1.8498  -0.2215   0.7992   0.2057   0.00    0.0
2019/05/19 14:28:35.000   22.996656281  120.222582534    98.8600   6   7   0.9949   0.8287   1.8389  -0.2202   0.7946   0.2044   0.00    0.0
2019/05/19 14:28:36.000   22.996656316  120.222582567    98.8588   6   7   0.9891   0.8239   1.8282  -0.2190   0.7900   0.2030   0.00    0.0
2019/05/19 14:28:37.000   22.996656307  120.222582641    98.8595   6   7   0.9834   0.8192   1.8176  -0.2178   0.7855   0.2017   0.00    0.0
2019/05/19 14:28:38.000   22.996656411  120.222582724    98.8643   6   7   0.9778   0.8145   1.8073  -0.2166   0.7810   0.2004   0.00    0.0
2019/05/19 14:28:39.000   22.996656429  120.222582760    98.8670   6   7   0.9723   0.8100   1.7971  -0.2154   0.7767   0.1992   0.00    0.0
2019/05/19 14:28:40.000   22.996656224  120.222582740    98.8644   6   7   0.9668   0.8055   1.7871  -0.2142   0.7724   0.1979   0.00    0.0
2019/05/19 14:28:41.000   22.996656169  120.222582647    98.8462   6   7   0.9615   0.8011   1.7773  -0.2131   0.7682   0.1967   0.00    0.0
2019/05/19 14:28:42.000   22.996656064  120.222582669    98.8552   6   7   0.9563   0.7967   1.7676  -0.2120   0.7640   0.1954   0.00    0.0
2019/05/19 14:28:43.000   22.996655980  120.222582632    98.8507   6   7   0.9511   0.7925   1.7580  -0.2109   0.7599   0.1942   0.00    0.0
2019/05/19 14:28:44.000   22.996656015  120.222582646    98.8441   6   7   0.9461   0.7883   1.7487  -0.2098   0.7559   0.1931   0.00    0.0
2019/05/19 14:28:45.000   22.996655949  120.222582609    98.8485   6   7   0.9411   0.7841   1.7394  -0.2087   0.7520   0.1919   0.00    0.0
2019/05/19 14:28:46.000   22.996655884  120.222582607    98.8474   6   7   0.9362   0.7801   1.7303  -0.2077   0.7481   0.1907   0.00    0.0
2019/05/19 14:28:47.000   22.996655911  120.222582638    98.8385   6   7   0.9313   0.7761   1.7214  -0.2066   0.7442   0.1896   0.00    0.0
2019/05/19 14:28:48.000   22.996655869  120.222582685    98.8235   6   7   0.9266   0.7721   1.7126  -0.2056   0.7405   0.1885   0.00    0.0
2019/05/19 14:28:49.000   22.996655789  120.222582689    98.8269   6   7   0.9219   0.7682   1.7039  -0.2046   0.7367   0.1874   0.00    0.0
2019/05/19 14:28:50.000   22.996655828  120.222582703    98.8121   6   7   0.9172   0.7644   1.6954  -0.2036   0.7331   0.1863   0.00    0.0
2019/05/19 14:28:51.000   22.996655845  120.222582694    98.8191   6   7   0.9127   0.7607   1.6869  -0.2026   0.7295   0.1852   0.00    0.0
2019/05/19 14:28:52.000   22.996655851  120.222582751    98.8151   6   7   0.9082   0.7569   1.6786  -0.2017   0.7259   0.1841   0.00    0.0
2019/05/19 14:28:53.000   22.996655822  120.222582760    98.7839   6   7   0.9038   0.7533   1.6705  -0.2007   0.7224   0.1831   0.00    0.0
2019/05/19 14:28:54.000   22.996655802  120.222582723    98.7723   6   7   0.8994   0.7497   1.6624  -0.1998   0.7190   0.1821   0.00    0.0
2019/05/19 14:28:55.000   22.996655724  120.222582679    98.7710   6   7   0.8951   0.7461   1.6545  -0.1989   0.7156   0.1810   0.00    0.0
2019/05/19 14:28:56.000   22.996655762  120.222582613    98.7705   6   7   0.8909   0.7426   1.6466  -0.1980   0.7122   0.1800   0.00    0.0
2019/05/19 14:28:57.000   22.996655751  120.222582601    98.7789   6   7   0.8867   0.7392   1.6389  -0.1971   0.7089   0.1790   0.00    0.0
2019/05/19 14:28:58.000   22.996655785  120.222582532    98.7935   6   7   0.8826   0.7358   1.6313  -0.1962   0.7056   0.1780   0.00    0.0
2019/05/19 14:28:59.000   22.996655778  120.222582473    98.7982   6   7   0.8785   0.7324   1.6238  -0.1953   0.7024   0.1770   0.00    0.0
2019/05/19 14:29:00.000   22.996655799  120.222582436    98.7938   6   7   0.8745   0.7291   1.6164  -0.1945   0.6992   0.1761   0.00    0.0
2019/05/19 14:29:01.000   22.996655719  120.222582442    98.7856   6   7   0.8705   0.7258   1.6090  -0.1937   0.6961   0.1751   0.00    0.0
2019/05/19 14:29:02.000   22.996655693  120.222582462    98.7743   6   7   0.8666   0.7226   1.6018  -0.1928   0.6930   0.1742   0.00    0.0
2019/05/19 14:29:03.000   22.996655680  120.222582481    98.7926   6   7   0.8628   0.7194   1.5947  -0.1920   0.6900   0.1732   0.00    0.0
2019/05/19 14:29:04.000   22.996655667  120.222582502    98.7863   6   7   0.8590   0.7163   1.5877  -0.1912   0.6870   0.1723   0.00    0.0
2019/05/19 14:29:05.000   22.996655593  120.222582468    98.7799   6   7   0.8552   0.7132   1.5807  -0.1904   0.6840   0.1714   0.00    0.0
2019/05/19 14:29:06.000   22.996655583  120.222582488    98.7727   6   7   0.8515   0.7101   1.5739  -0.1896   0.6811   0.1705   0.00    0.0
2019/05/19 14:29:07.000   22.996655449  120.222582504    98.7855   6   7   0.8479   0.7071   1.5671  -0.1888   0.6782   0.1696   0.00    0.0
2019/05/19 14:29:08.000   22.996655470  120.222582524    98.8115   6   7   0.8443   0.7041   1.5605  -0.1881   0.6753   0.1687   0.00    0.0
2019/05/19 14:29:09.000   22.996655480  120.222582530    98.8112   6   7   0.8407   0.7011   1.5539  -0.1873   0.6725   0.1678   0.00    0.0
2019/05/19 14:29:10.000   22.996655581  120.222582509    98.8196   6   7   0.8372   0.6982   1.5474  -0.1866   0.6697   0.1670   0.00    0.0
2019/05/19 14:29:11.000   22.996655511  120.222582488    98.8162   6   7   0.8337   0.6954   1.5409  -0.1858   0.6670   0.1661   0.00    0.0
2019/05/19 14:29:12.000   22.996655523  120.222582533    98.8031   6   7   0.8303   0.6925   1.5346  -0.1851   0.6643   0.1652   0.00    0.0
2019/05/19 14:29:13.000   22.996655544  120.222582519    98.7876   6   7   0.8269   0.6897   1.5283  -0.1844   0.6616   0.1644   0.00    0.0
2019/05/19 14:29:14.000   22.996655483  120.222582526    98.7921   6   7   0.8235   0.6870   1.5221  -0.1837   0.6589   0.1636   0.00    0.0
2019/05/19 14:29:15.000   22.996655456  120.222582539    98.8091   6   7   0.8202   0.6842   1.5160  -0.1830   0.6563   0.1627   0.00    0.0
2019/05/19 14:29:16.000   22.996655461  120.222582542    98.8047   6   7   0.8169   0.6815   1.5099  -0.1823   0.6537   0.1619   0.00    0.0
2019/05/19 14:29:17.000   22.996655519  120.222582500    98.8065   6   7   0.8137   0.6789   1.5040  -0.1816   0.6512   0.1611   0.00    0.0
2019/05/19 14:29:18.000   22.996655538  120.222582541    98.8031   6   7   0.8105   0.6762   1.4980  -0.1809   0.6486   0.1603   0.00    0.0
2019/05/19 14:29:19.000   22.996655529  120.222582532    98.7819   6   7   0.8073   0.6736   1.4922  -0.1802   0.6461   0.1595   0.00    0.0
2019/05/19 14:29:20.000   22.996655425  120.222582600    98.7732   6   7   0.8042   0.6710   1.4864  -0.1796   0.6437   0.1587   0.00    0.0
2019/05/19 14:29:21.000   22.996655425  120.222582590    98.7726   6   7   0.8011   0.6685   1.4807  -0.1789   0.6412   0.1579   0.00    0.0
2019/05/19 14:29:22.000   22.996655447  120.222582585    98.7738   6   7   0.7980   0.6660   1.4751  -0.1783   0.6388   0.1571   0.00    0.0
2019/05/19 14:29:23.000   22.996655422  120.222582535    98.7912   6   7   0.7950   0.6635   1.4695  -0.1776   0.6364   0.1564   0.00    0.0
2019/05/19 14:29:24.000   22.996655427  120.222582568    98.7892   6   7   0.7920   0.6610   1.4640  -0.1770   0.6341   0.1556   0.00    0.0
2019/05/19 14:29:25.000   22.996655357  120.222582572    98.7980   6   7   0.7891   0.6586   1.4585  -0.1764   0.6317   0.1548   0.00    0.0
2019/05/19 14:29:26.000   22.996655353  120.222582581    98.7978   6   7   0.7862   0.6562   1.4531  -0.1758   0.6294   0.1541   0.00    0.0
2019/05/19 14:29:27.000   22.996655358  120.222582626    98.7995   6   7   0.7833   0.6538   1.4478  -0.1752   0.6271   0.1533   0.00    0.0
2019/05/19 14:29:28.000   22.996655415  120.222582616    98.7932   6   7   0.7804   0.6514   1.4425  -0.1746   0.6249   0.1526   0.00    0.0
2019/05/19 14:29:29.000   22.996655364  120.222582606    98.7837   6   7   0.7776   0.6491   1.4373  -0.1740   0.6227   0.1518   0.00    0.0
2019/05/19 14:29:30.000   22.996655335  120.222582632    98.7901   6   7   0.7748   0.6468   1.4321  -0.1734   0.6204   0.1511   0.00    0.0
2019/05/19 14:29:31.000   22.996655377  120.222582641    98.7957   6   7   0.7720   0.6445   1.4270  -0.1728   0.6183   0.1504   0.00    0.0
2019/05/19 14:29:32.000   22.996655379  120.222582711    98.7938   6   7   0.7693   0.6422   1.4219  -0.1722   0.6161   0.1497   0.00    0.0
2019/05/19 14:29:33.000   22.996655387  120.222582737    98.7985   6   7   0.7665   0.6400   1.4169  -0.1716   0.6139   0.1490   0.00    0.0
2019/05/19 14:29:34.000   22.996655414  120.222582759    98.7943   6   7   0.7639   0.6378   1.4119  -0.1711   0.6118   0.1483   0.00    0.0
2019/05/19 14:29:35.000   22.996655426  120.222582759    98.7983   6   7   0.7612   0.6356   1.4070  -0.1705   0.6097   0.1476   0.00    0.0
2019/05/19 14:29:36.000   22.996655391  120.222582742    98.8007   6   7   0.7586   0.6334   1.4022  -0.1700   0.6077   0.1469   0.00    0.0
2019/05/19 14:29:37.000   22.996655391  120.222582776    98.7934   6   7   0.7560   0.6313   1.3974  -0.1694   0.6056   0.1462   0.00    0.0
2019/05/19 14:29:38.000   22.996655386  120.222582762    98.7842   6   7   0.7534   0.6292   1.3926  -0.1689   0.6036   0.1455   0.00    0.0
2019/05/19 14:29:39.000   22.996655473  120.222582735    98.7793   6   7   0.7508   0.6271   1.3879  -0.1684   0.6016   0.1448   0.00    0.0
2019/05/19 14:29:40.000   22.996655463  120.222582758    98.7717   6   7   0.7483   0.6250   1.3832  -0.1678   0.5996   0.1441   0.00    0.0
2019/05/19 14:29:41.000   22.996655459  120.222582767    98.7758   6   7   0.7458   0.6229   1.3786  -0.1673   0.5976   0.1434   0.00    0.0
2019/05/19 14:29:42.000   22.996655498  120.222582773    98.7722   6   7   0.7433   0.6209   1.3740  -0.1668   0.5956   0.1428   0.00    0.0
2019/05/19 14:29:43.000   22.996655480  120.222582744    98.7748   6   7   0.7409   0.6189   1.3695  -0.1663   0.5937   0.1421   0.00    0.0
2019/05/19 14:29:44.000   22.996655481  120.222582764    98.7741   6   7   0.7384   0.6169   1.3650  -0.1658   0.5918   0.1415   0.00    0.0
2019/05/19 14:29:45.000   22.996655482  120.222582743    98.7910   6   7   0.7360   0.6149   1.3606  -0.1653   0.5899   0.1408   0.00    0.0
2019/05/19 14:29:46.000   22.996655508  120.222582743    98.7993   6   7   0.7336   0.6129   1.3562  -0.1648   0.5880   0.1401   0.00    0.0
2019/05/19 14:29:47.000   22.996655508  120.222582790    98.8157   6   7   0.7313   0.6110   1.3518  -0.1643   0.5861   0.1395   0.00    0.0
2019/05/19 14:29:48.000   22.996655520  120.222582844    98.8327   6   7   0.7289   0.6091   1.3475  -0.1638   0.5843   0.1389   0.00    0.0
2019/05/19 14:29:49.000   22.996655511  120.222582846    98.8393   6   7   0.7266   0.6072   1.3432  -0.1633   0.5825   0.1382   0.00    0.0
2019/05/19 14:29:50.000   22.996655492  120.222582800    98.8472   6   7   0.7243   0.6053   1.3390  -0.1628   0.5807   0.1376   0.00    0.0
2019/05/19 14:29:51.000   22.996655500  120.222582770    98.8598   6   7   0.7220   0.6034   1.3348  -0.1623   0.5789   0.1369   0.00    0.0
2019/05/19 14:29:52.000   22.996655567  120.222582804    98.8552   6   7   0.7198   0.6015   1.3306  -0.1619   0.5771   0.1363   0.00    0.0
2019/05/19 14:29:53.000   22.996655566  120.222582828    98.8587   6   7   0.7175   0.5997   1.3265  -0.1614   0.5753   0.1357   0.00    0.0
2019/05/19 14:29:54.000   22.996655549  120.222582870    98.8724   6   7   0.7153   0.5979   1.3224  -0.1609   0.5736   0.1351   0.00    0.0
2019/05/19 14:29:55.000   22.996655517  120.222582857    98.8682   6   7   0.7131   0.5961   1.3183  -0.1605   0.5719   0.1345   0.00    0.0
2019/05/19 14:29:56.000   22.996655511  120.222582864    98.8619   6   7   0.7109   0.5943   1.3143  -0.1600   0.5701   0.1338   0.00    0.0
2019/05/19 14:29:57.000   22.996655501  120.222582892    98.8616   6   7   0.7088   0.5925   1.3104  -0.1596   0.5684   0.1332   0.00    0.0
2019/05/19 14:29:58.000   22.996655586  120.222582885    98.8654   6   7   0.7066   0.5908   1.3064  -0.1591   0.5668   0.1326   0.00    0.0
2019/05/19 14:29:59.000   22.996655614  120.222582875    98.8656   6   7   0.7045   0.5890   1.3025  -0.1587   0.5651   0.1320   0.00    0.0
2019/05/19 14:30:00.000   22.996655618  120.222582884    98.8638   6   7   0.7024   0.5873   1.2986  -0.1583   0.5634   0.1314   0.00    0.0
2019/05/19 14:30:01.000   22.996655615  120.222582878    98.8628   6   7   0.7003   0.5856   1.2948  -0.1578   0.5618   0.1308   0.00    0.0
2019/05/19 14:30:02.000   22.996655696  120.222582838    98.8678   6   7   0.6983   0.5839   1.2910  -0.1574   0.5602   0.1302   0.00    0.0
2019/05/19 14:30:03.000   22.996655727  120.222582814    98.8646   6   7   0.6962   0.5822   1.2872  -0.1570   0.5586   0.1297   0.00    0.0
2019/05/19 14:30:04.000   22.996655727  120.222582791    98.8626   6   7   0.6942   0.5806   1.2835  -0.1566   0.5570   0.1291   0.00    0.0
2019/05/19 14:30:05.000   22.996655730  120.222582746    98.8528   6   7   0.6922   0.5789   1.2798  -0.1562   0.5554   0.1285   0.00    0.0
2019/05/19 14:30:06.000   22.996655776  120.222582682    98.8585   6   7   0.6902   0.5773   1.2761  -0.1557   0.5538   0.1279   0.00    0.0
2019/05/19 14:30:07.000   22.996655773  120.222582693    98.8624   6   7   0.6882   0.5757   1.2724  -0.1553   0.5523   0.1273   0.00    0.0
2019/05/19 14:30:08.000   22.996655753  120.222582680    98.8661   6   7   0.6862   0.5741   1.2688  -0.1549   0.5507   0.1267   0.00    0.0
2019/05/19 14:30:09.000   22.996655793  120.222582698    98.8548   6   7   0.6843   0.5725   1.2652  -0.1545   0.5492   0.1262   0.00    0.0
2019/05/19 14:30:10.000   22.996655722  120.222582690    98.8530   6   7   0.6824   0.5709   1.2617  -0.1541   0.5477   0.1256   0.00    0.0
2019/05/19 14:30:11.000   22.996655647  120.222582734    98.8435   6   7   0.6804   0.5693   1.2581  -0.1537   0.5462   0.1250   0.00    0.0
2019/05/19 14:30:12.000   22.996655651  120.222582741    98.8379   6   7   0.6785   0.5677   1.2546  -0.1533   0.5447   0.1245   0.00    0.0
2019/05/19 14:30:13.000   22.996655639  120.222582732    98.8320   6   7   0.6767   0.5662   1.2512  -0.1530   0.5432   0.1239   0.00    0.0
2019/05/19 14:30:14.000   22.996655639  120.222582691    98.8393   6   7   0.6748   0.5647   1.2477  -0.1526   0.5417   0.1234   0.00    0.0
2019/05/19 14:30:15.000   22.996655647  120.222582638    98.8398   6   7   0.6729   0.5632   1.2443  -0.1522   0.5403   0.1228   0.00    0.0
2019/05/19 14:30:16.000   22.996655629  120.222582598    98.8326   6   7   0.6711   0.5617   1.2409  -0.1518   0.5388   0.1222   0.00    0.0
2019/05/19 14:30:17.000   22.996655607  120.222582603    98.8339   6   7   0.6693   0.5602   1.2375  -0.1514   0.5374   0.1217   0.00    0.0
2019/05/19 14:30:18.000   22.996655645  120.222582626    98.8339   6   7   0.6675   0.5587   1.2342  -0.1511   0.5360   0.1211   0.00    0.0
2019/05/19 14:30:19.000   22.996655683  120.222582641    98.8257   6   7   0.6657   0.5572   1.2309  -0.1507   0.5345   0.1206   0.00    0.0
2019/05/19 14:30:20.000   22.996655655  120.222582688    98.8158   6   7   0.6639   0.5557   1.2276  -0.1503   0.5331   0.1200   0.00    0.0
2019/05/19 14:30:21.000   22.996655600  120.222582704    98.8192   6   7   0.6621   0.5543   1.2243  -0.1500   0.5317   0.1195   0.00    0.0
2019/05/19 14:30:22.000   22.996655606  120.222582700    98.8096   6   7   0.6603   0.5529   1.2211  -0.1496   0.5304   0.1190   0.00    0.0
2019/05/19 14:30:23.000   22.996655605  120.222582685    98.8112   6   7   0.6586   0.5514   1.2179  -0.1492   0.5290   0.1184   0.00    0.0
2019/05/19 14:30:24.000   22.996655624  120.222582690    98.8176   6   7   0.6569   0.5500   1.2147  -0.1489   0.5276   0.1179   0.00    0.0
2019/05/19 14:30:25.000   22.996655669  120.222582716    98.8146   6   7   0.6551   0.5486   1.2116  -0.1485   0.5263   0.1174   0.00    0.0
2019/05/19 14:30:26.000   22.996655643  120.222582748    98.8163   6   7   0.6534   0.5472   1.2084  -0.1482   0.5250   0.1168   0.00    0.0
2019/05/19 14:30:27.000   22.996655619  120.222582708    98.8161   6   7   0.6518   0.5458   1.2053  -0.1478   0.5236   0.1163   0.00    0.0
2019/05/19 14:30:28.000   22.996655623  120.222582714    98.8176   6   7   0.6501   0.5445   1.2022  -0.1475   0.5223   0.1158   0.00    0.0
2019/05/19 14:30:29.000   22.996655664  120.222582674    98.8196   6   7   0.6484   0.5431   1.1991  -0.1472   0.5210   0.1152   0.00    0.0
2019/05/19 14:30:30.000   22.996655613  120.222582680    98.8142   6   7   0.6467   0.5418   1.1961  -0.1468   0.5197   0.1147   0.00    0.0
2019/05/19 14:30:31.000   22.996655583  120.222582692    98.8199   6   7   0.6451   0.5404   1.1931  -0.1465   0.5184   0.1142   0.00    0.0
2019/05/19 14:30:32.000   22.996655572  120.222582658    98.8125   6   7   0.6435   0.5391   1.1901  -0.1462   0.5171   0.1137   0.00    0.0
2019/05/19 14:30:33.000   22.996655592  120.222582657    98.8083   6   7   0.6419   0.5378   1.1871  -0.1458   0.5159   0.1132   0.00    0.0
2019/05/19 14:30:34.000   22.996655607  120.222582661    98.8045   6   7   0.6402   0.5365   1.1841  -0.1455   0.5146   0.1126   0.00    0.0
2019/05/19 14:30:35.000   22.996655631  120.222582627    98.8002   6   7   0.6386   0.5352   1.1812  -0.1452   0.5134   0.1121   0.00    0.0
2019/05/19 14:30:36.000   22.996655642  120.222582669    98.8142   6   7   0.6371   0.5339   1.1783  -0.1449   0.5121   0.1116   0.00    0.0
2019/05/19 14:30:37.000   22.996655623  120.222582675    98.8173   6   7   0.6355   0.5326   1.1754  -0.1445   0.5109   0.1111   0.00    0.0
2019/05/19 14:30:38.000   22.996655581  120.222582687    98.8174   6   7   0.6339   0.5313   1.1725  -0.1442   0.5097   0.1106   0.00    0.0
2019/05/19 14:30:39.000   22.996655557  120.222582727    98.8108   6   7   0.6324   0.5300   1.1697  -0.1439   0.5084   0.1101   0.00    0.0
2019/05/19 14:30:40.000   22.996655626  120.222582735    98.8097   6   7   0.6308   0.5288   1.1668  -0.1436   0.5072   0.1096   0.00    0.0
2019/05/19 14:30:41.000   22.996655585  120.222582766    98.8082   6   7   0.6293   0.5275   1.1640  -0.1433   0.5060   0.1091   0.00    0.0
2019/05/19 14:30:42.000   22.996655591  120.222582768    98.7912   6   7   0.6278   0.5263   1.1612  -0.1430   0.5048   0.1086   0.00    0.0
2019/05/19 14:30:43.000   22.996655628  120.222582780    98.7945   6   7   0.6263   0.5251   1.1584  -0.1427   0.5037   0.1081   0.00    0.0
2019/05/19 14:30:44.000   22.996655642  120.222582795    98.7950   6   7   0.6248   0.5239   1.1557  -0.1424   0.5025   0.1076   0.00    0.0
2019/05/19 14:30:45.000   22.996655655  120.222582788    98.7883   6   7   0.6233   0.5226   1.1530  -0.1421   0.5013   0.1071   0.00    0.0
2019/05/19 14:30:46.000   22.996655682  120.222582792    98.7938   6   7   0.6218   0.5214   1.1502  -0.1418   0.5002   0.1066   0.00    0.0
2019/05/19 14:30:47.000   22.996655714  120.222582770    98.7967   6   7   0.6203   0.5202   1.1475  -0.1415   0.4990   0.1061   0.00    0.0
2019/05/19 14:30:48.000   22.996655785  120.222582792    98.8023   6   7   0.6189   0.5191   1.1449  -0.1412   0.4979   0.1056   0.00    0.0
2019/05/19 14:30:49.000   22.996655781  120.222582793    98.8076   6   7   0.6174   0.5179   1.1422  -0.1409   0.4967   0.1051   0.00    0.0
2019/05/19 14:30:50.000   22.996655825  120.222582790    98.8008   6   7   0.6160   0.5167   1.1395  -0.1406   0.4956   0.1046   0.00    0.0
2019/05/19 14:30:51.000   22.996655865  120.222582810    98.7999   6   7   0.6146   0.5155   1.1369  -0.1403   0.4945   0.1041   0.00    0.0
2019/05/19 14:30:52.000   22.996655862  120.222582836    98.7975   6   7   0.6131   0.5144   1.1343  -0.1400   0.4934   0.1036   0.00    0.0
2019/05/19 14:30:53.000   22.996655883  120.222582848    98.7896   6   7   0.6117   0.5132   1.1317  -0.1398   0.4923   0.1031   0.00    0.0
2019/05/19 14:30:54.000   22.996655908  120.222582828    98.7889   6   7   0.6103   0.5121   1.1291  -0.1395   0.4912   0.1026   0.00    0.0
2019/05/19 14:30:55.000   22.996655893  120.222582848    98.7862   6   7   0.6089   0.5110   1.1266  -0.1392   0.4901   0.1021   0.00    0.0
2019/05/19 14:30:56.000   22.996655893  120.222582885    98.7879   6   7   0.6075   0.5098   1.1240  -0.1389   0.4890   0.1016   0.00    0.0
2019/05/19 14:30:57.000   22.996655894  120.222582905    98.7867   6   7   0.6062   0.5087   1.1215  -0.1386   0.4879   0.1012   0.00    0.0
2019/05/19 14:30:58.000   22.996655966  120.222582888    98.7864   6   7   0.6048   0.5076   1.1190  -0.1384   0.4869   0.1007   0.00    0.0
2019/05/19 14:30:59.000   22.996655989  120.222582878    98.7869   6   7   0.6034   0.5065   1.1165  -0.1381   0.4858   0.1002   0.00    0.0
2019/05/19 14:31:00.000   22.996655978  120.222582888    98.7842   6   7   0.6021   0.5054   1.1140  -0.1378   0.4847   0.0997   0.00    0.0
2019/05/19 14:31:01.000   22.996655950  120.222582886    98.7848   6   7   0.6007   0.5043   1.1116  -0.1376   0.4837   0.0992   0.00    0.0
2019/05/19 14:31:02.000   22.996655963  120.222582906    98.7988   6   7   0.5994   0.5032   1.1091  -0.1373   0.4826   0.0988   0.00    0.0
2019/05/19 14:31:03.000   22.996655990  120.222582921    98.7925   6   7   0.5981   0.5022   1.1067  -0.1370   0.4816   0.0983   0.00    0.0
2019/05/19 14:31:04.000   22.996656006  120.222582920    98.7899   6   7   0.5968   0.5011   1.1043  -0.1368   0.4806   0.0978   0.00    0.0
2019/05/19 14:31:05.000   22.996655957  120.222582949    98.7860   6   7   0.5955   0.5000   1.1019  -0.1365   0.4796   0.0973   0.00    0.0
2019/05/19 14:31:06.000   22.996655988  120.222582960    98.7878   6   7   0.5942   0.4990   1.0995  -0.1362   0.4785   0.0968   0.00    0.0
2019/05/19 14:31:07.000   22.996656049  120.222582946    98.7760   6   7   0.5929   0.4979   1.0971  -0.1360   0.4775   0.0964   0.00    0.0
2019/05/19 14:31:08.000   22.996656051  120.222582965    98.7727   6   7   0.5916   0.4969   1.0948  -0.1357   0.4765   0.0959   0.00    0.0
2019/05/19 14:31:09.000   22.996656074  120.222582972    98.7727   6   7   0.5903   0.4959   1.0924  -0.1355   0.4755   0.0954   0.00    0.0
2019/05/19 14:31:10.000   22.996656086  120.222582978    98.7688   6   7   0.5890   0.4948   1.0901  -0.1352   0.4745   0.0949   0.00    0.0
2019/05/19 14:31:11.000   22.996656103  120.222582979    98.7797   6   7   0.5878   0.4938   1.0878  -0.1350   0.4736   0.0945   0.00    0.0
2019/05/19 14:31:12.000   22.996656127  120.222582989    98.7902   6   7   0.5865   0.4928   1.0855  -0.1347   0.4726   0.0940   0.00    0.0
2019/05/19 14:31:13.000   22.996656136  120.222583016    98.7889   6   7   0.5853   0.4918   1.0832  -0.1345   0.4716   0.0935   0.00    0.0
2019/05/19 14:31:14.000   22.996656133  120.222583014    98.7911   6   7   0.5840   0.4908   1.0809  -0.1342   0.4706   0.0931   0.00    0.0
2019/05/19 14:31:15.000   22.996656090  120.222583009    98.7832   6   7   0.5828   0.4898   1.0787  -0.1340   0.4697   0.0926   0.00    0.0
2019/05/19 14:31:16.000   22.996656075  120.222583004    98.7736   6   7   0.5816   0.4888   1.0764  -0.1338   0.4687   0.0921   0.00    0.0
2019/05/19 14:31:17.000   22.996656077  120.222583000    98.7779   6   7   0.5804   0.4878   1.0742  -0.1335   0.4678   0.0916   0.00    0.0
2019/05/19 14:31:18.000   22.996656065  120.222582981    98.7755   6   7   0.5791   0.4868   1.0720  -0.1333   0.4668   0.0912   0.00    0.0
2019/05/19 14:31:19.000   22.996656053  120.222583024    98.7842   6   7   0.5779   0.4859   1.0698  -0.1330   0.4659   0.0907   0.00    0.0
2019/05/19 14:31:20.000   22.996656041  120.222583039    98.7877   6   7   0.5767   0.4849   1.0676  -0.1328   0.4650   0.0902   0.00    0.0
2019/05/19 14:31:21.000   22.996656057  120.222583080    98.7903   6   7   0.5756   0.4839   1.0654  -0.1326   0.4640   0.0898   0.00    0.0
2019/05/19 14:31:22.000   22.996656063  120.222583091    98.7927   6   7   0.5744   0.4830   1.0632  -0.1323   0.4631   0.0893   0.00    0.0
2019/05/19 14:31:23.000   22.996656100  120.222583109    98.7881   6   7   0.5732   0.4820   1.0611  -0.1321   0.4622   0.0888   0.00    0.0
2019/05/19 14:31:24.000   22.996656099  120.222583099    98.7900   6   7   0.5720   0.4811   1.0589  -0.1319   0.4613   0.0884   0.00    0.0
2019/05/19 14:31:25.000   22.996656138  120.222583118    98.7857   6   7   0.5709   0.4801   1.0568  -0.1316   0.4604   0.0879   0.00    0.0
2019/05/19 14:31:26.000   22.996656142  120.222583165    98.7909   6   7   0.5697   0.4792   1.0547  -0.1314   0.4595   0.0874   0.00    0.0
2019/05/19 14:31:27.000   22.996656138  120.222583136    98.7916   6   7   0.5686   0.4783   1.0526  -0.1312   0.4586   0.0870   0.00    0.0
2019/05/19 14:31:28.000   22.996656141  120.222583139    98.7829   6   7   0.5674   0.4773   1.0505  -0.1310   0.4577   0.0865   0.00    0.0
2019/05/19 14:31:29.000   22.996656168  120.222583147    98.7788   6   7   0.5663   0.4764   1.0484  -0.1307   0.4568   0.0861   0.00    0.0
2019/05/19 14:31:30.000   22.996656194  120.222583170    98.7826   6   7   0.5651   0.4755   1.0463  -0.1305   0.4559   0.0856   0.00    0.0
2019/05/19 14:31:31.000   22.996656194  120.222583159    98.7863   6   7   0.5640   0.4746   1.0443  -0.1303   0.4550   0.0851   0.00    0.0
2019/05/19 14:31:32.000   22.996656226  120.222583138    98.7809   6   7   0.5629   0.4737   1.0422  -0.1301   0.4542   0.0847   0.00    0.0
2019/05/19 14:31:33.000   22.996656234  120.222583157    98.7870   6   7   0.5618   0.4728   1.0402  -0.1299   0.4533   0.0842   0.00    0.0
2019/05/19 14:31:34.000   22.996656266  120.222583144    98.7934   6   7   0.5607   0.4719   1.0382  -0.1297   0.4524   0.0837   0.00    0.0
2019/05/19 14:31:35.000   22.996656273  120.222583138    98.7895   6   7   0.5596   0.4710   1.0362  -0.1294   0.4516   0.0833   0.00    0.0
2019/05/19 14:31:36.000   22.996656251  120.222583167    98.7881   6   7   0.5585   0.4702   1.0342  -0.1292   0.4507   0.0828   0.00    0.0
2019/05/19 14:31:37.000   22.996656267  120.222583156    98.7952   6   7   0.5574   0.4693   1.0322  -0.1290   0.4499   0.0824   0.00    0.0
2019/05/19 14:31:38.000   22.996656275  120.222583153    98.8001   6   7   0.5563   0.4684   1.0302  -0.1288   0.4490   0.0819   0.00    0.0
2019/05/19 14:31:39.000   22.996656257  120.222583155    98.8001   6   7   0.5552   0.4675   1.0282  -0.1286   0.4482   0.0814   0.00    0.0
2019/05/19 14:31:40.000   22.996656283  120.222583150    98.7991   6   7   0.5542   0.4667   1.0263  -0.1284   0.4474   0.0810   0.00    0.0
2019/05/19 14:31:41.000   22.996656295  120.222583131    98.7946   6   7   0.5531   0.4658   1.0243  -0.1282   0.4465   0.0805   0.00    0.0
2019/05/19 14:31:42.000   22.996656303  120.222583131    98.7968   6   7   0.5520   0.4650   1.0224  -0.1280   0.4457   0.0800   0.00    0.0
2019/05/19 14:31:43.000   22.996656329  120.222583142    98.7906   6   7   0.5510   0.4641   1.0205  -0.1278   0.4449   0.0796   0.00    0.0
2019/05/19 14:31:44.000   22.996656374  120.222583138    98.7949   6   7   0.5499   0.4633   1.0185  -0.1276   0.4441   0.0791   0.00    0.0
2019/05/19 14:31:45.000   22.996656426  120.222583100    98.8017   6   7   0.5489   0.4624   1.0166  -0.1274   0.4433   0.0786   0.00    0.0
2019/05/19 14:31:46.000   22.996656445  120.222583081    98.8069   6   7   0.5479   0.4616   1.0147  -0.1272   0.4425   0.0782   0.00    0.0
2019/05/19 14:31:47.000   22.996656450  120.222583062    98.8132   6   7   0.5468   0.4608   1.0129  -0.1270   0.4417   0.0777   0.00    0.0
2019/05/19 14:31:48.000   22.996656459  120.222583054    98.8155   6   7   0.5458   0.4599   1.0110  -0.1268   0.4409   0.0773   0.00    0.0
2019/05/19 14:31:49.000   22.996656464  120.222583044    98.8192   6   7   0.5448   0.4591   1.0091  -0.1266   0.4401   0.0768   0.00    0.0
2019/05/19 14:31:50.000   22.996656503  120.222583056    98.8141   6   7   0.5438   0.4583   1.0073  -0.1264   0.4393   0.0763   0.00    0.0
2019/05/19 14:31:51.000   22.996656531  120.222583052    98.8113   6   7   0.5427   0.4575   1.0054  -0.1262   0.4385   0.0759   0.00    0.0
2019/05/19 14:31:52.000   22.996656526  120.222583057    98.8131   6   7   0.5417   0.4567   1.0036  -0.1260   0.4377   0.0754   0.00    0.0
2019/05/19 14:31:53.000   22.996656504  120.222583031    98.8101   6   7   0.5407   0.4559   1.0018  -0.1258   0.4369   0.0749   0.00    0.0
2019/05/19 14:31:54.000   22.996656546  120.222583041    98.8100   6   7   0.5397   0.4551   0.9999  -0.1256   0.4362   0.0745   0.00    0.0
2019/05/19 14:31:55.000   22.996656519  120.222583068    98.8112   6   7   0.5387   0.4543   0.9981  -0.1254   0.4354   0.0740   0.00    0.0
2019/05/19 14:31:56.000   22.996656531  120.222583079    98.8097   6   7   0.5378   0.4535   0.9963  -0.1252   0.4346   0.0735   0.00    0.0
2019/05/19 14:31:57.000   22.996656511  120.222583090    98.8078   6   7   0.5368   0.4527   0.9945  -0.1250   0.4339   0.0731   0.00    0.0
2019/05/19 14:31:58.000   22.996656504  120.222583053    98.8035   6   7   0.5358   0.4519   0.9928  -0.1249   0.4331   0.0726   0.00    0.0
2019/05/19 14:31:59.000   22.996656542  120.222583035    98.8036   6   7   0.5348   0.4511   0.9910  -0.1247   0.4324   0.0721   0.00    0.0
2019/05/19 14:32:00.000   22.996656525  120.222583021    98.8021   6   7   0.5339   0.4504   0.9892  -0.1245   0.4316   0.0717   0.00    0.0
2019/05/19 14:32:01.000   22.996656540  120.222583001    98.8052   6   7   0.5329   0.4496   0.9875  -0.1243   0.4309   0.0712   0.00    0.0
2019/05/19 14:32:02.000   22.996656543  120.222582992    98.8106   6   7   0.5319   0.4488   0.9857  -0.1241   0.4301   0.0707   0.00    0.0
2019/05/19 14:32:03.000   22.996656565  120.222583003    98.8080   6   7   0.5310   0.4481   0.9840  -0.1239   0.4294   0.0703   0.00    0.0
2019/05/19 14:32:04.000   22.996656539  120.222583022    98.8036   6   7   0.5300   0.4473   0.9822  -0.1238   0.4286   0.0698   0.00    0.0
2019/05/19 14:32:05.000   22.996656561  120.222583040    98.7976   6   7   0.5291   0.4465   0.9805  -0.1236   0.4279   0.0693   0.00    0.0
2019/05/19 14:32:06.000   22.996656575  120.222583032    98.7936   6   7   0.5282   0.4458   0.9788  -0.1234   0.4272   0.0688   0.00    0.0
2019/05/19 14:32:07.000   22.996656593  120.222583021    98.7886   6   7   0.5272   0.4450   0.9771  -0.1232   0.4265   0.0684   0.00    0.0
2019/05/19 14:32:08.000   22.996656605  120.222583026    98.7944   6   7   0.5263   0.4443   0.9754  -0.1230   0.4257   0.0679   0.00    0.0
2019/05/19 14:32:09.000   22.996656621  120.222583008    98.7910   6   7   0.5254   0.4436   0.9737  -0.1229   0.4250   0.0674   0.00    0.0
2019/05/19 14:32:10.000   22.996656620  120.222583010    98.7877   6   7   0.5244   0.4428   0.9721  -0.1227   0.4243   0.0669   0.00    0.0
2019/05/19 14:32:11.000   22.996656599  120.222582989    98.7877   6   7   0.5235   0.4421   0.9704  -0.1225   0.4236   0.0665   0.00    0.0
2019/05/19 14:32:12.000   22.996656594  120.222582969    98.7915   6   7   0.5226   0.4414   0.9687  -0.1223   0.4229   0.0660   0.00    0.0
2019/05/19 14:32:13.000   22.996656601  120.222582969    98.7943   6   7   0.5217   0.4406   0.9671  -0.1222   0.4222   0.0655   0.00    0.0
2019/05/19 14:32:14.000   22.996656603  120.222582956    98.7851   6   7   0.5208   0.4399   0.9654  -0.1220   0.4215   0.0650   0.00    0.0
2019/05/19 14:32:15.000   22.996656612  120.222582939    98.7854   6   7   0.5199   0.4392   0.9638  -0.1218   0.4208   0.0645   0.00    0.0
2019/05/19 14:32:16.000   22.996656628  120.222582945    98.7857   6   7   0.5190   0.4385   0.9622  -0.1217   0.4201   0.0641   0.00    0.0
2019/05/19 14:32:17.000   22.996656625  120.222582941    98.7919   6   7   0.5181   0.4378   0.9605  -0.1215   0.4194   0.0636   0.00    0.0
2019/05/19 14:32:18.000   22.996656650  120.222582947    98.7923   6   7   0.5172   0.4371   0.9589  -0.1213   0.4187   0.0631   0.00    0.0
2019/05/19 14:32:19.000   22.996656648  120.222582975    98.7894   6   7   0.5163   0.4363   0.9573  -0.1212   0.4180   0.0626   0.00    0.0
2019/05/19 14:32:20.000   22.996656684  120.222582977    98.7861   6   7   0.5155   0.4356   0.9557  -0.1210   0.4173   0.0621   0.00    0.0
2019/05/19 14:32:21.000   22.996656692  120.222582968    98.7779   6   7   0.5146   0.4349   0.9541  -0.1208   0.4167   0.0616   0.00    0.0
2019/05/19 14:32:22.000   22.996656707  120.222582976    98.7805   6   7   0.5137   0.4343   0.9525  -0.1207   0.4160   0.0611   0.00    0.0
2019/05/19 14:32:23.000   22.996656718  120.222582971    98.7763   6   7   0.5128   0.4336   0.9509  -0.1205   0.4153   0.0606   0.00    0.0
2019/05/19 14:32:24.000   22.996656697  120.222582983    98.7738   6   7   0.5120   0.4329   0.9494  -0.1203   0.4147   0.0601   0.00    0.0
2019/05/19 14:32:25.000   22.996656679  120.222582968    98.7716   6   7   0.5111   0.4322   0.9478  -0.1202   0.4140   0.0596   0.00    0.0
2019/05/19 14:32:26.000   22.996656635  120.222582987    98.7716   6   7   0.5103   0.4315   0.9463  -0.1200   0.4133   0.0591   0.00    0.0
2019/05/19 14:32:27.000   22.996656652  120.222582986    98.7733   6   7   0.5094   0.4308   0.9447  -0.1199   0.4127   0.0586   0.00    0.0
2019/05/19 14:32:28.000   22.996656634  120.222582994    98.7797   6   7   0.5086   0.4302   0.9432  -0.1197   0.4120   0.0581   0.00    0.0
2019/05/19 14:32:29.000   22.996656655  120.222582989    98.7785   6   7   0.5077   0.4295   0.9416  -0.1195   0.4114   0.0576   0.00    0.0
2019/05/19 14:32:30.000   22.996656694  120.222583007    98.7780   6   7   0.5069   0.4288   0.9401  -0.1194   0.4107   0.0571   0.00    0.0
2019/05/19 14:32:31.000   22.996656707  120.222583010    98.7805   6   7   0.5060   0.4281   0.9386  -0.1192   0.4101   0.0566   0.00    0.0
2019/05/19 14:32:32.000   22.996656749  120.222583020    98.7867   6   7   0.5052   0.4275   0.9371  -0.1191   0.4094   0.0561   0.00    0.0
2019/05/19 14:32:33.000   22.996656757  120.222583025    98.7865   6   7   0.5044   0.4268   0.9356  -0.1189   0.4088   0.0556   0.00    0.0
2019/05/19 14:32:34.000   22.996656775  120.222583013    98.7881   6   7   0.5036   0.4262   0.9341  -0.1188   0.4081   0.0551   0.00    0.0
2019/05/19 14:32:35.000   22.996656764  120.222583002    98.7828   6   7   0.5027   0.4255   0.9326  -0.1186   0.4075   0.0546   0.00    0.0
2019/05/19 14:32:36.000   22.996656748  120.222583005    98.7862   6   7   0.5019   0.4249   0.9311  -0.1185   0.4069   0.0540   0.00    0.0
2019/05/19 14:32:37.000   22.996656748  120.222582993    98.7878   6   7   0.5011   0.4242   0.9296  -0.1183   0.4062   0.0535   0.00    0.0
2019/05/19 14:32:38.000   22.996656788  120.222582998    98.7936   6   7   0.5003   0.4236   0.9281  -0.1182   0.4056   0.0530   0.00    0.0
2019/05/19 14:32:39.000   22.996656786  120.222582997    98.7962   6   7   0.4995   0.4229   0.9267  -0.1180   0.4050   0.0525   0.00    0.0
2019/05/19 14:32:40.000   22.996656778  120.222582980    98.7910   6   7   0.4987   0.4223   0.9252  -0.1179   0.4044   0.0519   0.00    0.0
2019/05/19 14:32:41.000   22.996656745  120.222582980    98.7907   6   7   0.4979   0.4216   0.9237  -0.1177   0.4037   0.0514   0.00    0.0
2019/05/19 14:32:42.000   22.996656749  120.222582991    98.7977   6   7   0.4971   0.4210   0.9223  -0.1176   0.4031   0.0509   0.00    0.0
2019/05/19 14:32:43.000   22.996656740  120.222582999    98.8017   6   7   0.4963   0.4204   0.9209  -0.1174   0.4025   0.0503   0.00    0.0
2019/05/19 14:32:44.000   22.996656770  120.222583004    98.8055   6   7   0.4955   0.4197   0.9194  -0.1173   0.4019   0.0498   0.00    0.0
2019/05/19 14:32:45.000   22.996656825  120.222583005    98.8088   6   7   0.4947   0.4191   0.9180  -0.1171   0.4013   0.0492   0.00    0.0
2019/05/19 14:32:46.000   22.996656832  120.222582992    98.8068   6   7   0.4939   0.4185   0.9166  -0.1170   0.4007   0.0487   0.00    0.0
2019/05/19 14:32:47.000   22.996656874  120.222582988    98.8062   6   7   0.4931   0.4179   0.9151  -0.1168   0.4001   0.0481   0.00    0.0
2019/05/19 14:32:48.000   22.996656878  120.222582983    98.7959   6   7   0.4924   0.4173   0.9137  -0.1167   0.3995   0.0476   0.00    0.0
2019/05/19 14:32:49.000   22.996656882  120.222582994    98.7932   6   7   0.4916   0.4166   0.9123  -0.1166   0.3989   0.0470   0.00    0.0
2019/05/19 14:32:50.000   22.996656915  120.222582992    98.7875   6   7   0.4908   0.4160   0.9109  -0.1164   0.3983   0.0464   0.00    0.0
2019/05/19 14:32:51.000   22.996656928  120.222582992    98.7922   6   7   0.4900   0.4154   0.9095  -0.1163   0.3977   0.0458   0.00    0.0
2019/05/19 14:32:52.000   22.996656926  120.222582978    98.7940   6   7   0.4893   0.4148   0.9081  -0.1161   0.3971   0.0453   0.00    0.0
2019/05/19 14:32:53.000   22.996656941  120.222582971    98.7899   6   7   0.4885   0.4142   0.9068  -0.1160   0.3965   0.0447   0.00    0.0
2019/05/19 14:32:54.000   22.996656950  120.222582989    98.7948   6   7   0.4878   0.4136   0.9054  -0.1159   0.3959   0.0441   0.00    0.0
2019/05/19 14:32:55.000   22.996656967  120.222582991    98.7910   6   7   0.4870   0.4130   0.9040  -0.1157   0.3954   0.0435   0.00    0.0
2019/05/19 14:32:56.000   22.996656970  120.222582982    98.7896   6   7   0.4862   0.4124   0.9027  -0.1156   0.3948   0.0429   0.00    0.0
2019/05/19 14:32:57.000   22.996657001  120.222582994    98.7905   6   7   0.4855   0.4118   0.9013  -0.1154   0.3942   0.0423   0.00    0.0
2019/05/19 14:32:58.000   22.996657022  120.222583002    98.7955   6   7   0.4847   0.4112   0.8999  -0.1153   0.3936   0.0417   0.00    0.0
2019/05/19 14:32:59.000   22.996657044  120.222583000    98.7995   6   7   0.4840   0.4106   0.8986  -0.1152   0.3930   0.0411   0.00    0.0
2019/05/19 14:33:00.000   22.996657044  120.222582989    98.7985   6   7   0.4833   0.4101   0.8973  -0.1150   0.3925   0.0405   0.00    0.0
2019/05/19 14:33:01.000   22.996657039  120.222582984    98.7972   6   7   0.4825   0.4095   0.8959  -0.1149   0.3919   0.0398   0.00    0.0
2019/05/19 14:33:02.000   22.996657022  120.222582986    98.7983   6   7   0.4818   0.4089   0.8946  -0.1148   0.3913   0.0392   0.00    0.0
2019/05/19 14:33:03.000   22.996657027  120.222582992    98.8000   6   7   0.4811   0.4083   0.8933  -0.1146   0.3908   0.0385   0.00    0.0
2019/05/19 14:33:04.000   22.996657039  120.222582973    98.7977   6   7   0.4803   0.4077   0.8919  -0.1145   0.3902   0.0379   0.00    0.0
2019/05/19 14:33:05.000   22.996657075  120.222582991    98.8004   6   7   0.4796   0.4072   0.8906  -0.1144   0.3897   0.0372   0.00    0.0
2019/05/19 14:33:06.000   22.996657094  120.222583000    98.8030   6   7   0.4789   0.4066   0.8893  -0.1142   0.3891   0.0365   0.00    0.0
2019/05/19 14:33:07.000   22.996657112  120.222583001    98.8068   6   7   0.4782   0.4060   0.8880  -0.1141   0.3885   0.0359   0.00    0.0
2019/05/19 14:33:08.000   22.996657160  120.222583013    98.8100   6   7   0.4774   0.4055   0.8867  -0.1140   0.3880   0.0352   0.00    0.0
2019/05/19 14:33:09.000   22.996657148  120.222583001    98.8105   6   7   0.4767   0.4049   0.8854  -0.1139   0.3874   0.0345   0.00    0.0
2019/05/19 14:33:10.000   22.996657168  120.222583011    98.8109   6   7   0.4760   0.4043   0.8841  -0.1137   0.3869   0.0338   0.00    0.0
2019/05/19 14:33:11.000   22.996657188  120.222583010    98.8113   6   7   0.4753   0.4038   0.8829  -0.1136   0.3863   0.0330   0.00    0.0
2019/05/19 14:33:12.000   22.996657207  120.222583007    98.8123   6   7   0.4746   0.4032   0.8816  -0.1135   0.3858   0.0323   0.00    0.0
2019/05/19 14:33:13.000   22.996657216  120.222583009    98.8108   6   7   0.4739   0.4027   0.8803  -0.1133   0.3853   0.0315   0.00    0.0
2019/05/19 14:33:14.000   22.996657239  120.222583001    98.8098   6   7   0.4732   0.4021   0.8790  -0.1132   0.3847   0.0308   0.00    0.0
2019/05/19 14:33:15.000   22.996657236  120.222583022    98.8152   6   7   0.4725   0.4016   0.8778  -0.1131   0.3842   0.0300   0.00    0.0
2019/05/19 14:33:16.000   22.996657256  120.222583052    98.8212   6   7   0.4718   0.4010   0.8765  -0.1130   0.3837   0.0292   0.00    0.0
2019/05/19 14:33:17.000   22.996657286  120.222583056    98.8206   6   7   0.4711   0.4005   0.8753  -0.1128   0.3831   0.0283   0.00    0.0
2019/05/19 14:33:18.000   22.996657286  120.222583055    98.8172   6   7   0.4704   0.3999   0.8740  -0.1127   0.3826   0.0275   0.00    0.0
2019/05/19 14:33:19.000   22.996657262  120.222583055    98.8121   6   7   0.4697   0.3994   0.8728  -0.1126   0.3821   0.0266   0.00    0.0
2019/05/19 14:33:20.000   22.996657279  120.222583077    98.8119   6   7   0.4690   0.3988   0.8715  -0.1125   0.3815   0.0257   0.00    0.0
2019/05/19 14:33:21.000   22.996657305  120.222583063    98.8103   6   7   0.4683   0.3983   0.8703  -0.1124   0.3810   0.0248   0.00    0.0
2019/05/19 14:33:22.000   22.996657310  120.222583062    98.8078   6   7   0.4677   0.3978   0.8691  -0.1122   0.3805   0.0239   0.00    0.0
2019/05/19 14:33:23.000   22.996657300  120.222583058    98.8055   6   7   0.4670   0.3972   0.8678  -0.1121   0.3800   0.0229   0.00    0.0
2019/05/19 14:33:24.000   22.996657284  120.222583040    98.8065   6   7   0.4663   0.3967   0.8666  -0.1120   0.3794   0.0218   0.00    0.0
2019/05/19 14:33:25.000   22.996657265  120.222583047    98.8012   6   7   0.4656   0.3962   0.8654  -0.1119   0.3789   0.0208   0.00    0.0
2019/05/19 14:33:26.000   22.996657259  120.222583039    98.7982   6   7   0.4650   0.3956   0.8642  -0.1117   0.3784   0.0196   0.00    0.0
2019/05/19 14:33:27.000   22.996657223  120.222583037    98.7975   6   7   0.4643   0.3951   0.8630  -0.1116   0.3779   0.0184   0.00    0.0
2019/05/19 14:33:28.000   22.996657221  120.222583034    98.7986   6   7   0.4636   0.3946   0.8618  -0.1115   0.3774   0.0172   0.00    0.0
2019/05/19 14:33:29.000   22.996657202  120.222583041    98.7942   6   7   0.4630   0.3941   0.8606  -0.1114   0.3769   0.0158   0.00    0.0
2019/05/19 14:33:30.000   22.996657231  120.222583041    98.7981   6   7   0.4623   0.3935   0.8594  -0.1113   0.3764   0.0143   0.00    0.0
2019/05/19 14:33:31.000   22.996657247  120.222583046    98.7990   6   7   0.4616   0.3930   0.8582  -0.1112   0.3759   0.0127   0.00    0.0
2019/05/19 14:33:32.000   22.996657248  120.222583020    98.7961   6   7   0.4610   0.3925   0.8570  -0.1110   0.3754   0.0107   0.00    0.0
2019/05/19 14:33:33.000   22.996657276  120.222583015    98.7987   6   7   0.4603   0.3920   0.8559  -0.1109   0.3749   0.0084   0.00    0.0
2019/05/19 14:33:34.000   22.996657271  120.222583002    98.7991   6   7   0.4597   0.3915   0.8547  -0.1108   0.3744   0.0052   0.00    0.0
2019/05/19 14:33:35.000   22.996657271  120.222582997    98.7914   6   7   0.4590   0.3910   0.8535  -0.1107   0.3739  -0.0042   0.00    0.0
2019/05/19 14:33:36.000   22.996657290  120.222583014    98.7941   6   7   0.4584   0.3905   0.8524  -0.1106   0.3734  -0.0078   0.00    0.0
2019/05/19 14:33:37.000   22.996657323  120.222583021    98.7976   6   7   0.4577   0.3900   0.8512  -0.1105   0.3729  -0.0102   0.00    0.0
2019/05/19 14:33:38.000   22.996657337  120.222583014    98.7966   6   7   0.4571   0.3895   0.8500  -0.1104   0.3724  -0.0122   0.00    0.0
2019/05/19 14:33:39.000   22.996657344  120.222583015    98.7985   6   7   0.4565   0.3890   0.8489  -0.1102   0.3719  -0.0139   0.00    0.0
2019/05/19 14:33:40.000   22.996657351  120.222583021    98.7951   6   7   0.4558   0.3885   0.8477  -0.1101   0.3714  -0.0153   0.00    0.0
2019/05/19 14:33:41.000   22.996657360  120.222583010    98.7933   6   7   0.4552   0.3880   0.8466  -0.1100   0.3709  -0.0167   0.00    0.0
2019/05/19 14:33:42.000   22.996657382  120.222583025    98.7955   6   7   0.4546   0.3875   0.8455  -0.1099   0.3704  -0.0179   0.00    0.0
2019/05/19 14:33:43.000   22.996657369  120.222583028    98.7949   6   7   0.4539   0.3870   0.8443  -0.1098   0.3699  -0.0191   0.00    0.0
2019/05/19 14:33:44.000   22.996657374  120.222583032    98.7994   6   7   0.4533   0.3865   0.8432  -0.1097   0.3695  -0.0202   0.00    0.0
2019/05/19 14:33:45.000   22.996657400  120.222583032    98.7993   6   7   0.4527   0.3860   0.8421  -0.1096   0.3690  -0.0212   0.00    0.0
2019/05/19 14:33:46.000   22.996657421  120.222583027    98.7959   6   7   0.4521   0.3855   0.8409  -0.1095   0.3685  -0.0222   0.00    0.0
2019/05/19 14:33:47.000   22.996657464  120.222583015    98.7961   6   7   0.4514   0.3850   0.8398  -0.1094   0.3680  -0.0231   0.00    0.0
2019/05/19 14:33:48.000   22.996657479  120.222583030    98.7973   6   7   0.4508   0.3845   0.8387  -0.1093   0.3676  -0.0240   0.00    0.0
2019/05/19 14:33:49.000   22.996657493  120.222583051    98.7958   6   7   0.4502   0.3841   0.8376  -0.1091   0.3671  -0.0248   0.00    0.0
2019/05/19 14:33:50.000   22.996657482  120.222583055    98.7964   6   7   0.4496   0.3836   0.8365  -0.1090   0.3666  -0.0257   0.00    0.0
2019/05/19 14:33:51.000   22.996657481  120.222583052    98.7918   6   7   0.4490   0.3831   0.8354  -0.1089   0.3661  -0.0265   0.00    0.0
2019/05/19 14:33:52.000   22.996657507  120.222583052    98.7922   6   7   0.4484   0.3826   0.8343  -0.1088   0.3657  -0.0272   0.00    0.0
2019/05/19 14:33:53.000   22.996657518  120.222583061    98.7969   6   7   0.4477   0.3821   0.8332  -0.1087   0.3652  -0.0280   0.00    0.0
2019/05/19 14:33:54.000   22.996657540  120.222583053    98.7950   6   7   0.4471   0.3817   0.8321  -0.1086   0.3647  -0.0287   0.00    0.0
2019/05/19 14:33:55.000   22.996657520  120.222583058    98.7910   6   7   0.4465   0.3812   0.8310  -0.1085   0.3643  -0.0294   0.00    0.0
2019/05/19 14:33:56.000   22.996657548  120.222583051    98.7885   6   7   0.4459   0.3807   0.8299  -0.1084   0.3638  -0.0301   0.00    0.0
2019/05/19 14:33:57.000   22.996657557  120.222583036    98.7868   6   7   0.4453   0.3803   0.8289  -0.1083   0.3634  -0.0308   0.00    0.0
2019/05/19 14:33:58.000   22.996657564  120.222583030    98.7868   6   7   0.4447   0.3798   0.8278  -0.1082   0.3629  -0.0314   0.00    0.0
2019/05/19 14:33:59.000   22.996657569  120.222583049    98.7848   6   7   0.4441   0.3793   0.8267  -0.1081   0.3624  -0.0320   0.00    0.0
2019/05/19 14:34:00.000   22.996657552  120.222583045    98.7821   6   7   0.4435   0.3789   0.8256  -0.1080   0.3620  -0.0327   0.00    0.0
2019/05/19 14:34:01.000   22.996657546  120.222583025    98.7776   6   7   0.4429   0.3784   0.8246  -0.1079   0.3615  -0.0333   0.00    0.0
2019/05/19 14:34:02.000   22.996657543  120.222583028    98.7803   6   7   0.4423   0.3779   0.8235  -0.1078   0.3611  -0.0339   0.00    0.0
2019/05/19 14:34:03.000   22.996657527  120.222583034    98.7844   6   7   0.4418   0.3775   0.8225  -0.1077   0.3606  -0.0344   0.00    0.0
2019/05/19 14:34:04.000   22.996657540  120.222583027    98.7834   6   7   0.4412   0.3770   0.8214  -0.1076   0.3602  -0.0350   0.00    0.0
2019/05/19 14:34:05.000   22.996657547  120.222583012    98.7881   6   7   0.4406   0.3766   0.8204  -0.1075   0.3597  -0.0356   0.00    0.0
2019/05/19 14:34:06.000   22.996657539  120.222583019    98.7909   6   7   0.4400   0.3761   0.8193  -0.1074   0.3593  -0.0361   0.00    0.0
2019/05/19 14:34:07.000   22.996657530  120.222583038    98.7890   6   7   0.4394   0.3757   0.8183  -0.1073   0.3588  -0.0366   0.00    0.0
2019/05/19 14:34:08.000   22.996657560  120.222583039    98.7913   6   7   0.4388   0.3752   0.8172  -0.1072   0.3584  -0.0372   0.00    0.0
2019/05/19 14:34:09.000   22.996657553  120.222583022    98.7877   6   7   0.4383   0.3748   0.8162  -0.1071   0.3580  -0.0377   0.00    0.0
2019/05/19 14:34:10.000   22.996657540  120.222583022    98.7861   6   7   0.4377   0.3743   0.8152  -0.1070   0.3575  -0.0382   0.00    0.0
