$GPRMC,104426.591,A,5920.7019,N,01803.2893,E,0.117980,320.93,141204,,*0F
$GPGGA,104427.591,5920.7009,N,01803.2938,E,1,05,3.3,78.2,M,23.2,M,0.0,0000*4A
$GPRMC,104427.591,A,5920.7009,N,01803.2938,E,0.146345,320.93,141204,,*08
$GPGGA,104428.591,5920.7008,N,01803.2943,E,1,05,3.3,78.9,M,23.2,M,0.0,0000*43
$GPRMC,104428.591,A,5920.7008,N,01803.2943,E,0.164145,320.93,141204,,*08
$GPGGA,104429.591,5920.7012,N,01803.2931,E,1,05,3.3,77.1,M,23.2,M,0.0,0000*4B
$GPRMC,104429.591,A,5920.7012,N,01803.2931,E,0.150242,320.93,141204,,*04
$GPGGA,104430.591,5920.7011,N,01803.2935,E,1,05,3.3,77.5,M,23.2,M,0.0,0000*40
$GPRMC,104430.591,A,5920.7011,N,01803.2935,E,0.169002,320.93,141204,,*07
$GPGGA,104431.591,5920.7011,N,01803.2939,E,1,05,3.3,77.9,M,23.2,M,0.0,0000*41
$GPRMC,104431.591,A,5920.7011,N,01803.2939,E,0.221061,320.93,141204,,*00
$GPGGA,104432.591,5920.7013,N,01803.2940,E,1,04,8.9,77.9,M,23.2,M,0.0,0000*4E
$GPRMC,104432.591,A,5920.7013,N,01803.2940,E,1.558939,320.93,141204,,*03
$GPGGA,104433.591,5920.7019,N,01803.2940,E,1,04,8.9,77.8,M,23.2,M,0.0,0000*44
$GPRMC,104433.591,A,5920.7019,N,01803.2940,E,2.483712,0.03,141204,,*03
$GPGGA,104434.591,5920.7026,N,01803.2938,E,1,04,8.9,77.7,M,23.2,M,0.0,0000*4F
$GPRMC,104434.591,A,5920.7026,N,01803.2938,E,2.742301,355.64,141204,,*0D
$GPGGA,104435.591,5920.7033,N,01803.2935,E,1,04,8.9,77.5,M,23.2,M,0.0,0000*45
$GPRMC,104435.591,A,5920.7033,N,01803.2935,E,2.385788,351.58,141204,,*04
$GPGGA,104436.591,5920.7038,N,01803.2931,E,1,04,8.9,77.3,M,23.2,M,0.0,0000*4F
$GPRMC,104436.591,A,5920.7038,N,01803.2931,E,1.597616,351.58,141204,,*08
$GPGGA,104437.591,5920.7043,N,01803.2926,E,1,04,8.9,77.0,M,23.2,M,0.0,0000*47
$GPRMC,104437.591,A,5920.7043,N,01803.2926,E,1.999958,345.27,141204,,*09
$GPGGA,104438.590,5920.7048,N,01803.2920,E,1,04,8.9,76.8,M,23.2,M,0.0,0000*4D
$GPRMC,104438.590,A,5920.7048,N,01803.2920,E,2.434977,339.78,141204,,*0F
$GPGGA,104439.590,5920.7054,N,01803.2914,E,1,04,8.9,76.5,M,23.2,M,0.0,0000*4B
$GPRMC,104439.590,A,5920.7054,N,01803.2914,E,2.476644,340.57,141204,,*0E
$GPGGA,104440.590,5920.7060,N,01803.2908,E,1,04,8.9,76.3,M,23.2,M,0.0,0000*49
$GPRMC,104440.590,A,5920.7060,N,01803.2908,E,1.781627,339.11,141204,,*0B
$GPGGA,104441.590,5920.7063,N,01803.2903,E,1,04,8.9,76.0,M,23.2,M,0.0,0000*43
$GPRMC,104441.590,A,5920.7063,N,01803.2903,E,1.258339,339.11,141204,,*09
$GPGGA,104442.590,5920.7068,N,01803.2899,E,1,05,5.9,75.8,M,23.2,M,0.0,0000*4E
$GPRMC,104442.590,A,5920.7068,N,01803.2899,E,1.801152,340.57,141204,,*06
$GPGGA,104443.590,5920.7072,N,01803.2895,E,1,05,5.9,75.8,M,23.2,M,0.0,0000*48
$GPRMC,104443.590,A,5920.7072,N,01803.2895,E,1.973083,334.55,141204,,*08
$GPGGA,104444.590,5920.7078,N,01803.2888,E,1,04,8.9,75.8,M,23.2,M,0.0,0000*45
$GPRMC,104444.590,A,5920.7078,N,01803.2888,E,2.685312,327.23,141204,,*04
$GPGGA,104445.590,5920.7085,N,01803.2879,E,1,04,9.0,75.7,M,23.2,M,0.0,0000*4F
$GPRMC,104445.590,A,5920.7085,N,01803.2879,E,2.918799,331.97,141204,,*0D
$GPGGA,104446.590,5920.7092,N,01803.2872,E,1,05,5.9,75.7,M,23.2,M,0.0,0000*45
$GPRMC,104446.590,A,5920.7092,N,01803.2872,E,2.858062,334.14,141204,,*0B
$GPGGA,104447.590,5920.7099,N,01803.2867,E,1,05,5.9,76.0,M,23.2,M,0.0,0000*4F
$GPRMC,104447.590,A,5920.7099,N,01803.2867,E,2.894543,333.77,141204,,*01
$GPGGA,104448.590,5920.7107,N,01803.2863,E,1,05,5.9,76.5,M,23.2,M,0.0,0000*47
$GPRMC,104448.590,A,5920.7107,N,01803.2863,E,3.050895,330.49,141204,,*05
$GPGGA,104449.590,5920.7114,N,01803.2860,E,1,05,5.9,77.4,M,23.2,M,0.0,0000*47
$GPRMC,104449.590,A,5920.7114,N,01803.2860,E,3.066903,333.28,141204,,*0A
$GPGGA,104450.590,5920.7122,N,01803.2859,E,1,05,5.8,78.4,M,23.2,M,0.0,0000*4E
$GPRMC,104450.590,A,5920.7122,N,01803.2859,E,3.033966,339.48,141204,,*02
$GPGGA,104451.590,5920.7129,N,01803.2856,E,1,04,9.0,79.1,M,23.2,M,0.0,0000*4A
$GPRMC,104451.590,A,5920.7129,N,01803.2856,E,3.063032,337.05,141204,,*0D
$GPGGA,104452.589,5920.7137,N,01803.2852,E,1,04,9.0,79.7,M,23.2,M,0.0,0000*4C
$GPRMC,104452.589,A,5920.7137,N,01803.2852,E,3.006027,337.28,141204,,*05
$GPGGA,104453.589,5920.7145,N,01803.2848,E,1,05,5.8,80.3,M,23.2,M,0.0,0000*44
$GPRMC,104453.589,A,5920.7145,N,01803.2848,E,3.174329,339.97,141204,,*09
$GPGGA,104454.589,5920.7152,N,01803.2844,E,1,05,5.8,80.8,M,23.2,M,0.0,0000*42
$GPRMC,104454.589,A,5920.7152,N,01803.2844,E,2.992917,331.00,141204,,*04
$GPGGA,104455.589,5920.7159,N,01803.2837,E,1,04,9.0,81.1,M,23.2,M,0.0,0000*41
$GPRMC,104455.589,A,5920.7159,N,01803.2837,E,2.585596,329.28,141204,,*06
$GPGGA,104456.589,5920.7165,N,01803.2829,E,1,04,9.0,81.1,M,23.2,M,0.0,0000*42
$GPRMC,104456.589,A,5920.7165,N,01803.2829,E,2.983147,334.47,141204,,*02
$GPGGA,104457.589,5920.7173,N,01803.2822,E,1,04,9.0,81.1,M,23.2,M,0.0,0000*4F
$GPRMC,104457.589,A,5920.7173,N,01803.2822,E,2.936807,338.52,141204,,*04
$GPGGA,104458.589,5920.7181,N,01803.2815,E,1,04,9.0,81.0,M,23.2,M,0.0,0000*48
$GPRMC,104458.589,A,5920.7181,N,01803.2815,E,2.779498,335.66,141204,,*07
$GPGGA,104459.589,5920.7188,N,01803.2806,E,1,05,5.8,80.8,M,23.2,M,0.0,0000*4E
$GPRMC,104459.589,A,5920.7188,N,01803.2806,E,2.781641,333.94,141204,,*07
$GPGGA,104500.589,5920.7196,N,01803.2793,E,1,05,3.3,80.1,M,23.2,M,0.0,0000*4B
$GPRMC,104500.589,A,5920.7196,N,01803.2793,E,2.520663,336.56,141204,,*04
$GPGGA,104501.589,5920.7206,N,01803.2769,E,1,05,3.3,78.2,M,23.2,M,0.0,0000*41
$GPRMC,104501.589,A,5920.7206,N,01803.2769,E,2.138972,333.88,141204,,*0E
$GPGGA,104502.589,5920.7216,N,01803.2738,E,1,05,3.3,75.4,M,23.2,M,0.0,0000*4C
$GPRMC,104502.589,A,5920.7216,N,01803.2738,E,1.766260,317.20,141204,,*0A
$GPGGA,104503.589,5920.7225,N,01803.2708,E,1,05,3.3,72.6,M,23.2,M,0.0,0000*4B
$GPRMC,104503.589,A,5920.7225,N,01803.2708,E,0.995080,317.20,141204,,*07
$GPGGA,104504.589,5920.7231,N,01803.2680,E,1,05,3.3,69.9,M,23.2,M,0.0,0000*4D
$GPRMC,104504.589,A,5920.7231,N,01803.2680,E,0.538185,317.20,141204,,*0B
$GPGGA,104505.588,5920.7236,N,01803.2658,E,1,05,3.3,67.5,M,23.2,M,0.0,0000*4D
$GPRMC,104505.588,A,5920.7236,N,01803.2658,E,0.105784,317.20,141204,,*04
$GPGGA,104506.588,5920.7240,N,01803.2640,E,1,05,3.3,65.4,M,23.2,M,0.0,0000*45
$GPRMC,104506.588,A,5920.7240,N,01803.2640,E,0.150785,317.20,141204,,*0E
$GPGGA,104507.588,5920.7244,N,01803.2621,E,1,05,3.3,63.5,M,23.2,M,0.0,0000*40
$GPRMC,104507.588,A,5920.7244,N,01803.2621,E,1.179182,317.20,141204,,*07
$GPGGA,104508.588,5920.7251,N,01803.2600,E,1,05,3.3,61.8,M,23.2,M,0.0,0000*47
$GPRMC,104508.588,A,5920.7251,N,01803.2600,E,2.347273,318.34,141204,,*04
$GPGGA,104509.588,5920.7259,N,01803.2578,E,1,05,3.3,60.4,M,23.2,M,0.0,0000*4F
$GPRMC,104509.588,A,5920.7259,N,01803.2578,E,3.041934,328.05,141204,,*0C
$GPGGA,104510.588,5920.7269,N,01803.2559,E,1,05,3.3,59.1,M,23.2,M,0.0,0000*48
$GPRMC,104510.588,A,5920.7269,N,01803.2559,E,3.352736,349.62,141204,,*0F
$GPGGA,104511.588,5920.7281,N,01803.2545,E,1,05,3.3,58.0,M,23.2,M,0.0,0000*42
$GPRMC,104511.588,A,5920.7281,N,01803.2545,E,3.532892,357.82,141204,,*05
$GPGGA,104512.588,5920.7293,N,01803.2532,E,1,05,3.3,56.9,M,23.2,M,0.0,0000*45
$GPRMC,104512.588,A,5920.7293,N,01803.2532,E,3.687739,349.73,141204,,*07
$GPGGA,104513.588,5920.7304,N,01803.2518,E,1,06,3.1,56.1,M,23.2,M,0.0,0000*4A
$GPRMC,104513.588,A,5920.7304,N,01803.2518,E,3.566776,340.10,141204,,*0A
$GPGGA,104514.588,5920.7315,N,01803.2501,E,1,05,3.3,55.3,M,23.2,M,0.0,0000*45
$GPRMC,104514.588,A,5920.7315,N,01803.2501,E,3.531781,336.51,141204,,*0B
$GPGGA,104515.588,5920.7326,N,01803.2484,E,1,06,3.1,54.4,M,23.2,M,0.0,0000*4F
$GPRMC,104515.588,A,5920.7326,N,01803.2484,E,3.425868,337.56,141204,,*0C
$GPGGA,104516.588,5920.7336,N,01803.2469,E,1,05,3.3,53.8,M,23.2,M,0.0,0000*44
$GPRMC,104516.588,A,5920.7336,N,01803.2469,E,3.551740,337.53,141204,,*0F
$GPGGA,104517.588,5920.7347,N,01803.2454,E,1,06,3.1,53.2,M,23.2,M,0.0,0000*46
$GPRMC,104517.588,A,5920.7347,N,01803.2454,E,3.555826,332.67,141204,,*0F
$GPGGA,104518.588,5920.7357,N,01803.2440,E,1,05,3.3,52.7,M,23.2,M,0.0,0000*48
$GPRMC,104518.588,A,5920.7357,N,01803.2440,E,3.429744,332.65,141204,,*07
$GPGGA,104519.587,5920.7367,N,01803.2425,E,1,05,3.3,52.1,M,23.2,M,0.0,0000*40
$GPRMC,104519.587,A,5920.7367,N,01803.2425,E,3.568192,332.95,141204,,*0F
$GPGGA,104520.587,5920.7377,N,01803.2410,E,1,05,3.3,51.4,M,23.2,M,0.0,0000*4B
$GPRMC,104520.587,A,5920.7377,N,01803.2410,E,3.431482,334.73,141204,,*05
$GPGGA,104521.587,5920.7386,N,01803.2398,E,1,05,3.3,50.9,M,23.2,M,0.0,0000*4F
$GPRMC,104521.587,A,5920.7386,N,01803.2398,E,3.448326,337.50,141204,,*08
$GPGGA,104522.587,5920.7396,N,01803.2385,E,1,05,3.3,50.4,M,23.2,M,0.0,0000*4C
$GPRMC,104522.587,A,5920.7396,N,01803.2385,E,3.431066,335.99,141204,,*08
$GPGGA,104523.587,5920.7406,N,01803.2373,E,1,06,3.1,50.0,M,23.2,M,0.0,0000*4F
$GPRMC,104523.587,A,5920.7406,N,01803.2373,E,3.663433,334.78,141204,,*01
$GPGGA,104524.587,5920.7416,N,01803.2360,E,1,07,1.3,49.1,M,23.2,M,0.0,0000*43
$GPRMC,104524.587,A,5920.7416,N,01803.2360,E,3.566919,337.65,141204,,*09
$GPGGA,104525.587,5920.7426,N,01803.2351,E,1,06,1.7,48.6,M,23.2,M,0.0,0000*40
$GPRMC,104525.587,A,5920.7426,N,01803.2351,E,3.561051,338.77,141204,,*07
$GPGGA,104526.587,5920.7436,N,01803.2341,E,1,06,1.7,48.0,M,23.2,M,0.0,0000*45
$GPRMC,104526.587,A,5920.7436,N,01803.2341,E,3.571422,335.31,141204,,*0A
$GPGGA,104527.587,5920.7446,N,01803.2331,E,1,05,2.3,47.4,M,23.2,M,0.0,0000*4B
$GPRMC,104527.587,A,5920.7446,N,01803.2331,E,3.639882,332.72,141204,,*02
$GPGGA,104528.587,5920.7455,N,01803.2320,E,1,05,2.3,46.8,M,23.2,M,0.0,0000*4B
$GPRMC,104528.587,A,5920.7455,N,01803.2320,E,3.582879,332.67,141204,,*0C
$GPGGA,104529.587,5920.7464,N,01803.2309,E,1,05,2.3,46.1,M,23.2,M,0.0,0000*4A
$GPRMC,104529.587,A,5920.7464,N,01803.2309,E,3.460223,335.71,141204,,*0C
$GPGGA,104530.587,5920.7474,N,01803.2300,E,1,05,2.3,45.4,M,23.2,M,0.0,0000*4C
$GPRMC,104530.587,A,5920.7474,N,01803.2300,E,3.486833,335.95,141204,,*05
$GPGGA,104531.587,5920.7483,N,01803.2291,E,1,06,1.7,45.0,M,23.2,M,0.0,0000*4C
$GPRMC,104531.587,A,5920.7483,N,01803.2291,E,3.335638,333.85,141204,,*08
$GPGGA,104532.587,5920.7492,N,01803.2282,E,1,05,2.3,44.3,M,23.2,M,0.0,0000*4B
$GPRMC,104532.587,A,5920.7492,N,01803.2282,E,3.465013,331.96,141204,,*04
$GPGGA,104533.586,5920.7500,N,01803.2273,E,1,05,2.3,43.5,M,23.2,M,0.0,0000*4E
$GPRMC,104533.586,A,5920.7500,N,01803.2273,E,3.357969,327.28,141204,,*00
$GPGGA,104534.586,5920.7508,N,01803.2263,E,1,05,2.3,42.8,M,23.2,M,0.0,0000*4C
$GPRMC,104534.586,A,5920.7508,N,01803.2263,E,3.407072,330.14,141204,,*06
$GPGGA,104535.586,5920.7516,N,01803.2254,E,1,06,1.7,42.2,M,23.2,M,0.0,0000*48
$GPRMC,104535.586,A,5920.7516,N,01803.2254,E,3.287362,333.05,141204,,*03
$GPGGA,104536.586,5920.7524,N,01803.2245,E,1,06,1.7,41.7,M,23.2,M,0.0,0000*4C
$GPRMC,104536.586,A,5920.7524,N,01803.2245,E,3.208078,330.17,141204,,*0E
$GPGGA,104537.586,5920.7532,N,01803.2236,E,1,06,1.7,41.3,M,23.2,M,0.0,0000*4A
$GPRMC,104537.586,A,5920.7532,N,01803.2236,E,3.358200,326.76,141204,,*05
$GPGGA,104538.586,5920.7540,N,01803.2226,E,1,06,1.7,41.0,M,23.2,M,0.0,0000*42
$GPRMC,104538.586,A,5920.7540,N,01803.2226,E,3.378583,332.49,141204,,*09
$GPGGA,104539.586,5920.7548,N,01803.2218,E,1,06,1.7,40.7,M,23.2,M,0.0,0000*40
$GPRMC,104539.586,A,5920.7548,N,01803.2218,E,3.390726,330.02,141204,,*0B
$GPGGA,104540.586,5920.7556,N,01803.2209,E,1,06,1.7,40.5,M,23.2,M,0.0,0000*43
$GPRMC,104540.586,A,5920.7556,N,01803.2209,E,3.363453,331.07,141204,,*03
$GPGGA,104541.586,5920.7564,N,01803.2200,E,1,06,1.7,40.3,M,23.2,M,0.0,0000*4C
$GPRMC,104541.586,A,5920.7564,N,01803.2200,E,3.459575,329.50,141204,,*0A
$GPGGA,104542.586,5920.7572,N,01803.2191,E,1,05,5.7,40.2,M,23.2,M,0.0,0000*45
$GPRMC,104542.586,A,5920.7572,N,01803.2191,E,3.401464,330.98,141204,,*05
$GPGGA,104543.586,5920.7580,N,01803.2183,E,1,06,1.7,40.2,M,23.2,M,0.0,0000*4D
$GPRMC,104543.586,A,5920.7580,N,01803.2183,E,3.269408,330.09,141204,,*00
$GPGGA,104544.586,5920.7587,N,01803.2175,E,1,06,1.7,40.4,M,23.2,M,0.0,0000*42
$GPRMC,104544.586,A,5920.7587,N,01803.2175,E,3.483868,334.61,141204,,*0B
$GPGGA,104545.586,5920.7595,N,01803.2168,E,1,05,2.3,40.7,M,23.2,M,0.0,0000*4B
$GPRMC,104545.586,A,5920.7595,N,01803.2168,E,3.122845,344.70,141204,,*03
$GPGGA,104546.586,5920.7603,N,01803.2162,E,1,05,2.3,40.7,M,23.2,M,0.0,0000*4E
$GPRMC,104546.586,A,5920.7603,N,01803.2162,E,3.106214,339.89,141204,,*02
$GPGGA,104547.585,5920.7611,N,01803.2155,E,1,06,1.7,40.5,M,23.2,M,0.0,0000*4D
$GPRMC,104547.585,A,5920.7611,N,01803.2155,E,3.314744,333.50,141204,,*08
$GPGGA,104548.585,5920.7619,N,01803.2146,E,1,05,2.3,40.5,M,23.2,M,0.0,0000*4C
$GPRMC,104548.585,A,5920.7619,N,01803.2146,E,3.493535,335.59,141204,,*0E
$GPGGA,104549.585,5920.7627,N,01803.2136,E,1,05,2.3,40.4,M,23.2,M,0.0,0000*46
$GPRMC,104549.585,A,5920.7627,N,01803.2136,E,3.491091,334.82,141204,,*0B
$GPGGA,104550.585,5920.7635,N,01803.2127,E,1,05,2.3,40.4,M,23.2,M,0.0,0000*4D
$GPRMC,104550.585,A,5920.7635,N,01803.2127,E,3.402906,334.66,141204,,*07
$GPGGA,104551.585,5920.7643,N,01803.2119,E,1,05,2.3,40.2,M,23.2,M,0.0,0000*46
$GPRMC,104551.585,A,5920.7643,N,01803.2119,E,3.422047,337.94,141204,,*0A
$GPGGA,104552.585,5920.7652,N,01803.2113,E,1,06,1.7,40.3,M,23.2,M,0.0,0000*4A
$GPRMC,104552.585,A,5920.7652,N,01803.2113,E,3.282163,345.05,141204,,*05
$GPGGA,104553.585,5920.7661,N,01803.2108,E,1,06,1.7,40.4,M,23.2,M,0.0,0000*46
$GPRMC,104553.585,A,5920.7661,N,01803.2108,E,3.486218,345.53,141204,,*00
$GPGGA,104554.585,5920.7670,N,01803.2104,E,1,06,1.7,40.6,M,23.2,M,0.0,0000*4F
$GPRMC,104554.585,A,5920.7670,N,01803.2104,E,3.502541,344.00,141204,,*0A
$GPGGA,104555.585,5920.7680,N,01803.2099,E,1,06,1.7,40.9,M,23.2,M,0.0,0000*4B
$GPRMC,104555.585,A,5920.7680,N,01803.2099,E,3.456381,341.59,141204,,*02
$GPGGA,104556.585,5920.7689,N,01803.2093,E,1,06,1.7,41.3,M,23.2,M,0.0,0000*40
$GPRMC,104556.585,A,5920.7689,N,01803.2093,E,3.488534,335.78,141204,,*09
$GPGGA,104557.585,5920.7699,N,01803.2087,E,1,06,1.7,42.1,M,23.2,M,0.0,0000*44
$GPRMC,104557.585,A,5920.7699,N,01803.2087,E,3.425006,333.48,141204,,*0A
$GPGGA,104558.585,5920.7709,N,01803.2079,E,1,06,1.7,42.7,M,23.2,M,0.0,0000*44
$GPRMC,104558.585,A,5920.7709,N,01803.2079,E,3.471954,324.35,141204,,*0F
$GPGGA,104559.585,5920.7719,N,01803.2072,E,1,06,1.7,43.7,M,23.2,M,0.0,0000*4E
$GPRMC,104559.585,A,5920.7719,N,01803.2072,E,3.382092,332.31,141204,,*0F
$GPGGA,104600.585,5920.7729,N,01803.2065,E,1,06,1.7,44.6,M,23.2,M,0.0,0000*42
$GPRMC,104600.585,A,5920.7729,N,01803.2065,E,3.472417,331.69,141204,,*0A
$GPGGA,104601.584,5920.7738,N,01803.2058,E,1,05,2.3,44.8,M,23.2,M,0.0,0000*46
$GPRMC,104601.584,A,5920.7738,N,01803.2058,E,3.441082,334.13,141204,,*04
$GPGGA,104602.584,5920.7747,N,01803.2050,E,1,06,1.7,44.9,M,23.2,M,0.0,0000*40
$GPRMC,104602.584,A,5920.7747,N,01803.2050,E,3.469100,333.77,141204,,*03
$GPGGA,104603.584,5920.7755,N,01803.2042,E,1,05,2.3,44.9,M,23.2,M,0.0,0000*45
$GPRMC,104603.584,A,5920.7755,N,01803.2042,E,3.445396,334.01,141204,,*07
$GPGGA,104604.584,5920.7764,N,01803.2035,E,1,05,2.3,44.8,M,23.2,M,0.0,0000*41
$GPRMC,104604.584,A,5920.7764,N,01803.2035,E,3.435355,336.78,141204,,*06
$GPGGA,104605.584,5920.7771,N,01803.2027,E,1,05,2.3,44.7,M,23.2,M,0.0,0000*48
$GPRMC,104605.584,A,5920.7771,N,01803.2027,E,3.369293,335.11,141204,,*09
$GPGGA,104606.584,5920.7779,N,01803.2019,E,1,05,2.3,44.5,M,23.2,M,0.0,0000*4C
$GPRMC,104606.584,A,5920.7779,N,01803.2019,E,3.413218,337.15,141204,,*00
$GPGGA,104607.584,5920.7787,N,01803.2010,E,1,05,2.3,44.2,M,23.2,M,0.0,0000*42
$GPRMC,104607.584,A,5920.7787,N,01803.2010,E,3.530685,329.03,141204,,*01
$GPGGA,104608.584,5920.7794,N,01803.1999,E,1,05,2.3,43.9,M,23.2,M,0.0,0000*48
$GPRMC,104608.584,A,5920.7794,N,01803.1999,E,3.552031,322.37,141204,,*06
$GPGGA,104609.584,5920.7801,N,01803.1986,E,1,05,2.3,43.7,M,23.2,M,0.0,0000*4A
$GPRMC,104609.584,A,5920.7801,N,01803.1986,E,3.456481,322.70,141204,,*03
$GPGGA,104610.584,5920.7808,N,01803.1974,E,1,05,2.3,43.4,M,23.2,M,0.0,0000*45
$GPRMC,104610.584,A,5920.7808,N,01803.1974,E,3.598357,324.06,141204,,*07
$GPGGA,104611.584,5920.7815,N,01803.1962,E,1,06,1.8,43.3,M,23.2,M,0.0,0000*43
$GPRMC,104611.584,A,5920.7815,N,01803.1962,E,3.304643,329.43,141204,,*02
$GPGGA,104612.584,5920.7823,N,01803.1951,E,1,06,1.8,43.3,M,23.2,M,0.0,0000*45
$GPRMC,104612.584,A,5920.7823,N,01803.1951,E,3.643515,332.50,141204,,*0A
$GPGGA,104613.584,5920.7831,N,01803.1939,E,1,06,1.8,43.3,M,23.2,M,0.0,0000*49
$GPRMC,104613.584,A,5920.7831,N,01803.1939,E,3.724668,335.00,141204,,*0D
$GPGGA,104614.583,5920.7840,N,01803.1928,E,1,06,1.8,43.5,M,23.2,M,0.0,0000*49
$GPRMC,104614.583,A,5920.7840,N,01803.1928,E,3.474361,340.39,141204,,*09
$GPGGA,104615.583,5920.7848,N,01803.1918,E,1,06,1.8,43.6,M,23.2,M,0.0,0000*40
$GPRMC,104615.583,A,5920.7848,N,01803.1918,E,3.434800,337.32,141204,,*00
$GPGGA,104616.583,5920.7855,N,01803.1907,E,1,06,1.8,43.8,M,23.2,M,0.0,0000*4F
$GPRMC,104616.583,A,5920.7855,N,01803.1907,E,3.240165,332.88,141204,,*0A
$GPGGA,104617.583,5920.7862,N,01803.1897,E,1,06,1.8,43.7,M,23.2,M,0.0,0000*4D
$GPRMC,104617.583,A,5920.7862,N,01803.1897,E,3.209688,336.37,141204,,*0E
$GPGGA,104618.583,5920.7869,N,01803.1887,E,1,06,1.8,43.6,M,23.2,M,0.0,0000*49
$GPRMC,104618.583,A,5920.7869,N,01803.1887,E,3.211035,340.43,141204,,*00
$GPGGA,104619.583,5920.7876,N,01803.1880,E,1,06,1.8,43.3,M,23.2,M,0.0,0000*44
$GPRMC,104619.583,A,5920.7876,N,01803.1880,E,3.192311,348.22,141204,,*0A
$GPGGA,104620.583,5920.7883,N,01803.1875,E,1,06,1.8,43.0,M,23.2,M,0.0,0000*4D
$GPRMC,104620.583,A,5920.7883,N,01803.1875,E,2.775666,357.51,141204,,*01
$GPGGA,104621.583,5920.7888,N,01803.1872,E,1,06,1.8,42.7,M,23.2,M,0.0,0000*46
$GPRMC,104621.583,A,5920.7888,N,01803.1872,E,2.047414,356.64,141204,,*0A
$GPGGA,104622.583,5920.7892,N,01803.1873,E,1,07,1.3,42.5,M,23.2,M,0.0,0000*47
$GPRMC,104622.583,A,5920.7892,N,01803.1873,E,2.251847,32.14,141204,,*3A
$GPGGA,104623.583,5920.7895,N,01803.1880,E,1,07,1.3,42.0,M,23.2,M,0.0,0000*48
$GPRMC,104623.583,A,5920.7895,N,01803.1880,E,2.776156,47.49,141204,,*33
$GPGGA,104624.583,5920.7898,N,01803.1892,E,1,07,1.3,41.4,M,23.2,M,0.0,0000*46
$GPRMC,104624.583,A,5920.7898,N,01803.1892,E,3.176802,59.66,141204,,*37
$GPGGA,104625.583,5920.7900,N,01803.1906,E,1,06,3.1,40.8,M,23.2,M,0.0,0000*47
$GPRMC,104625.583,A,5920.7900,N,01803.1906,E,3.159898,64.76,141204,,*3B
$GPGGA,104626.583,5920.7902,N,01803.1920,E,1,06,3.1,40.0,M,23.2,M,0.0,0000*4A
$GPRMC,104626.583,A,5920.7902,N,01803.1920,E,3.340934,61.21,141204,,*34
$GPGGA,104627.583,5920.7905,N,01803.1935,E,1,06,3.1,39.4,M,23.2,M,0.0,0000*42
$GPRMC,104627.583,A,5920.7905,N,01803.1935,E,3.334158,59.68,141204,,*31
$GPGGA,104628.582,5920.7907,N,01803.1949,E,1,06,3.1,38.7,M,23.2,M,0.0,0000*47
$GPRMC,104628.582,A,5920.7907,N,01803.1949,E,3.243699,56.32,141204,,*3D
$GPGGA,104629.582,5920.7911,N,01803.1962,E,1,06,3.1,38.1,M,23.2,M,0.0,0000*4E
$GPRMC,104629.582,A,5920.7911,N,01803.1962,E,2.806002,51.55,141204,,*3A
$GPGGA,104630.582,5920.7914,N,01803.1974,E,1,06,3.1,37.6,M,23.2,M,0.0,0000*4C
$GPRMC,104630.582,A,5920.7914,N,01803.1974,E,3.205773,57.80,141204,,*37
$GPGGA,104631.582,5920.7917,N,01803.1988,E,1,04,3.4,37.2,M,23.2,M,0.0,0000*4E
$GPRMC,104631.582,A,5920.7917,N,01803.1988,E,3.433295,57.52,141204,,*37
$GPGGA,104632.582,5920.7921,N,01803.2002,E,1,05,3.1,37.1,M,23.2,M,0.0,0000*47
$GPRMC,104632.582,A,5920.7921,N,01803.2002,E,3.333683,56.95,141204,,*37
$GPGGA,104633.582,5920.7925,N,01803.2016,E,1,05,3.1,37.0,M,23.2,M,0.0,0000*46
$GPRMC,104633.582,A,5920.7925,N,01803.2016,E,3.513867,57.65,141204,,*39
$GPGGA,104634.582,5920.7928,N,01803.2031,E,1,05,3.1,37.0,M,23.2,M,0.0,0000*49
$GPRMC,104634.582,A,5920.7928,N,01803.2031,E,3.396633,74.76,141204,,*31
$GPGGA,104635.582,5920.7928,N,01803.2049,E,1,05,3.1,37.0,M,23.2,M,0.0,0000*47
$GPRMC,104635.582,A,5920.7928,N,01803.2049,E,3.582971,87.21,141204,,*3B
$GPGGA,104636.582,5920.7928,N,01803.2066,E,1,05,2.5,37.4,M,23.2,M,0.0,0000*48
$GPRMC,104636.582,A,5920.7928,N,01803.2066,E,3.294186,81.61,141204,,*37
$GPGGA,104637.582,5920.7929,N,01803.2082,E,1,06,2.1,37.9,M,23.2,M,0.0,0000*48
$GPRMC,104637.582,A,5920.7929,N,01803.2082,E,3.121771,75.26,141204,,*36
$GPGGA,104638.582,5920.7931,N,01803.2098,E,1,04,3.4,38.2,M,23.2,M,0.0,0000*47
$GPRMC,104638.582,A,5920.7931,N,01803.2098,E,3.262798,79.49,141204,,*3D
$GPGGA,104639.582,5920.7933,N,01803.2114,E,1,06,2.1,38.6,M,23.2,M,0.0,0000*43
$GPRMC,104639.582,A,5920.7933,N,01803.2114,E,3.314980,61.55,141204,,*38
$GPGGA,104640.582,5920.7937,N,01803.2129,E,1,05,2.5,38.9,M,23.2,M,0.0,0000*4F
$GPRMC,104640.582,A,5920.7937,N,01803.2129,E,3.009560,70.58,141204,,*3C
$GPGGA,104641.582,5920.7941,N,01803.2143,E,1,06,2.1,39.3,M,23.2,M,0.0,0000*4F
$GPRMC,104641.582,A,5920.7941,N,01803.2143,E,3.133305,65.47,141204,,*37
$GPGGA,104642.581,5920.7946,N,01803.2158,E,1,05,3.4,40.0,M,23.2,M,0.0,0000*48
$GPRMC,104642.581,A,5920.7946,N,01803.2158,E,3.138018,70.91,141204,,*31
$GPGGA,104643.581,5920.7950,N,01803.2174,E,1,04,8.2,40.4,M,23.2,M,0.0,0000*48
$GPRMC,104643.581,A,5920.7950,N,01803.2174,E,3.189347,69.26,141204,,*3E
$GPGGA,104644.581,5920.7953,N,01803.2190,E,1,04,8.2,40.7,M,23.2,M,0.0,0000*45
$GPRMC,104644.581,A,5920.7953,N,01803.2190,E,3.134232,69.87,141204,,*3E
$GPGGA,104645.581,5920.7959,N,01803.2206,E,1,05,3.4,41.3,M,23.2,M,0.0,0000*4B
$GPRMC,104645.581,A,5920.7959,N,01803.2206,E,3.151504,63.46,141204,,*3F
$GPGGA,104646.581,5920.7964,N,01803.2221,E,1,05,3.4,41.7,M,23.2,M,0.0,0000*47
$GPRMC,104646.581,A,5920.7964,N,01803.2221,E,3.168141,61.83,141204,,*33
$GPGGA,104647.581,5920.7968,N,01803.2237,E,1,04,8.3,42.1,M,23.2,M,0.0,0000*45
$GPRMC,104647.581,A,5920.7968,N,01803.2237,E,3.125339,66.79,141204,,*3F
$GPGGA,104648.581,5920.7972,N,01803.2250,E,1,04,8.3,42.4,M,23.2,M,0.0,0000*45
$GPRMC,104648.581,A,5920.7972,N,01803.2250,E,2.470944,61.71,141204,,*31
$GPGGA,104649.581,5920.7975,N,01803.2261,E,1,04,8.3,42.6,M,23.2,M,0.0,0000*43
$GPRMC,104649.581,A,5920.7975,N,01803.2261,E,1.915359,64.76,141204,,*3C
$GPGGA,104650.581,5920.7980,N,01803.2269,E,1,05,3.4,43.4,M,23.2,M,0.0,0000*47
$GPRMC,104650.581,A,5920.7980,N,01803.2269,E,2.306496,27.35,141204,,*39
$GPGGA,104651.581,5920.7985,N,01803.2279,E,1,04,8.3,43.8,M,23.2,M,0.0,0000*43
$GPRMC,104651.581,A,5920.7985,N,01803.2279,E,2.307838,59.14,141204,,*3F
$GPGGA,104652.581,5920.7988,N,01803.2291,E,1,04,8.3,44.1,M,23.2,M,0.0,0000*45
$GPRMC,104652.581,A,5920.7988,N,01803.2291,E,2.470948,60.14,141204,,*3C
$GPGGA,104653.581,5920.7991,N,01803.2304,E,1,05,3.4,45.1,M,23.2,M,0.0,0000*4D
$GPRMC,104653.581,A,5920.7991,N,01803.2304,E,1.899090,95.14,141204,,*36
$GPGGA,104654.581,5920.7992,N,01803.2312,E,1,05,3.4,45.9,M,23.2,M,0.0,0000*46
$GPRMC,104654.581,A,5920.7992,N,01803.2312,E,1.037874,95.14,141204,,*3B
$GPGGA,104655.581,5920.7993,N,01803.2316,E,1,03,17.7,46.4,M,23.2,M,0.0,0000*7C
$GPRMC,104655.581,A,5920.7993,N,01803.2316,E,0.432904,95.14,141204,,*39
$GPGGA,104656.580,5920.7993,N,01803.2318,E,1,04,8.4,46.8,M,23.2,M,0.0,0000*46
$GPRMC,104656.580,A,5920.7993,N,01803.2318,E,0.501776,95.14,141204,,*3F
$GPGGA,104657.580,5920.7991,N,01803.2318,E,1,05,3.4,47.9,M,23.2,M,0.0,0000*4F
$GPRMC,104657.580,A,5920.7991,N,01803.2318,E,0.493565,95.14,141204,,*36
$GPGGA,104658.580,5920.7991,N,01803.2319,E,1,05,3.4,49.5,M,23.2,M,0.0,0000*43
$GPRMC,104658.580,A,5920.7991,N,01803.2319,E,0.392667,95.14,141204,,*3F
$GPGGA,104659.580,5920.7995,N,01803.2324,E,1,05,3.4,51.5,M,23.2,M,0.0,0000*41
$GPRMC,104659.580,A,5920.7995,N,01803.2324,E,1.434558,95.14,141204,,*31
$GPGGA,104700.580,5920.7991,N,01803.2323,E,1,05,2.8,49.6,M,23.2,M,0.0,0000*48
$GPRMC,104700.580,A,5920.7991,N,01803.2323,E,1.843862,78.44,141204,,*31
$GPGGA,104701.580,5920.7987,N,01803.2325,E,1,05,2.8,47.3,M,23.2,M,0.0,0000*43
$GPRMC,104701.580,A,5920.7987,N,01803.2325,E,2.016564,67.74,141204,,*3C
$GPGGA,104702.580,5920.7988,N,01803.2327,E,1,06,1.9,45.4,M,23.2,M,0.0,0000*49
$GPRMC,104702.580,A,5920.7988,N,01803.2327,E,2.262944,67.12,141204,,*3D
$GPGGA,104703.580,5920.7992,N,01803.2331,E,1,06,1.9,44.3,M,23.2,M,0.0,0000*42
$GPRMC,104703.580,A,5920.7992,N,01803.2331,E,2.512741,67.00,141204,,*38
$GPGGA,104704.580,5920.7997,N,01803.2340,E,1,06,1.9,43.6,M,23.2,M,0.0,0000*44
$GPRMC,104704.580,A,5920.7997,N,01803.2340,E,2.762931,58.73,141204,,*38
$GPGGA,104705.580,5920.8001,N,01803.2352,E,1,06,1.9,42.9,M,23.2,M,0.0,0000*41
$GPRMC,104705.580,A,5920.8001,N,01803.2352,E,2.876679,57.46,141204,,*33
$GPGGA,104706.580,5920.8004,N,01803.2365,E,1,05,2.8,42.4,M,23.2,M,0.0,0000*4F
$GPRMC,104706.580,A,5920.8004,N,01803.2365,E,2.792510,65.63,141204,,*3E
$GPGGA,104707.580,5920.8007,N,01803.2378,E,1,05,2.8,42.1,M,23.2,M,0.0,0000*44
$GPRMC,104707.580,A,5920.8007,N,01803.2378,E,2.776296,64.52,141204,,*30
$GPGGA,104708.580,5920.8011,N,01803.2391,E,1,05,2.8,41.7,M,23.2,M,0.0,0000*4E
$GPRMC,104708.580,A,5920.8011,N,01803.2391,E,2.829394,56.12,141204,,*3C
$GPGGA,104709.579,5920.8014,N,01803.2405,E,1,06,1.9,41.1,M,23.2,M,0.0,0000*41
$GPRMC,104709.579,A,5920.8014,N,01803.2405,E,2.952672,61.50,141204,,*36
$GPGGA,104710.579,5920.8017,N,01803.2421,E,1,05,2.8,40.3,M,23.2,M,0.0,0000*4E
$GPRMC,104710.579,A,5920.8017,N,01803.2421,E,2.984645,62.59,141204,,*3E
$GPGGA,104711.579,5920.8019,N,01803.2437,E,1,06,1.9,39.6,M,23.2,M,0.0,0000*4C
$GPRMC,104711.579,A,5920.8019,N,01803.2437,E,3.024540,64.93,141204,,*32
$GPGGA,104712.579,5920.8022,N,01803.2453,E,1,06,1.9,38.9,M,23.2,M,0.0,0000*4B
$GPRMC,104712.579,A,5920.8022,N,01803.2453,E,2.950697,57.90,141204,,*3A
$GPGGA,104713.579,5920.8026,N,01803.2470,E,1,06,1.9,39.0,M,23.2,M,0.0,0000*47
$GPRMC,104713.579,A,5920.8026,N,01803.2470,E,2.723891,65.65,141204,,*37
$GPGGA,104714.579,5920.8029,N,01803.2490,E,1,06,1.9,40.0,M,23.2,M,0.0,0000*4F
$GPRMC,104714.579,A,5920.8029,N,01803.2490,E,2.764860,72.89,141204,,*38
$GPGGA,104715.579,5920.8032,N,01803.2511,E,1,06,1.9,41.9,M,23.2,M,0.0,0000*44
$GPRMC,104715.579,A,5920.8032,N,01803.2511,E,2.884688,67.70,141204,,*30
$GPGGA,104716.579,5920.8036,N,01803.2531,E,1,06,1.9,43.8,M,23.2,M,0.0,0000*42
$GPRMC,104716.579,A,5920.8036,N,01803.2531,E,2.925612,66.98,141204,,*3B
$GPGGA,104717.579,5920.8041,N,01803.2550,E,1,06,1.9,45.3,M,23.2,M,0.0,0000*49
$GPRMC,104717.579,A,5920.8041,N,01803.2550,E,2.918474,60.30,141204,,*35
$GPGGA,104718.579,5920.8046,N,01803.2567,E,1,06,1.9,46.3,M,23.2,M,0.0,0000*46
$GPRMC,104718.579,A,5920.8046,N,01803.2567,E,2.845356,67.48,141204,,*3F
$GPGGA,104719.579,5920.8050,N,01803.2584,E,1,05,2.8,46.9,M,23.2,M,0.0,0000*46
$GPRMC,104719.579,A,5920.8050,N,01803.2584,E,2.865883,66.89,141204,,*39
$GPGGA,104720.579,5920.8054,N,01803.2599,E,1,05,2.8,46.9,M,23.2,M,0.0,0000*44
$GPRMC,104720.579,A,5920.8054,N,01803.2599,E,3.022560,65.21,141204,,*30
$GPGGA,104721.579,5920.8058,N,01803.2612,E,1,06,1.9,46.7,M,23.2,M,0.0,0000*46
$GPRMC,104721.579,A,5920.8058,N,01803.2612,E,2.964227,58.92,141204,,*35
$GPGGA,104722.579,5920.8062,N,01803.2623,E,1,06,1.9,46.4,M,23.2,M,0.0,0000*4D
$GPRMC,104722.579,A,5920.8062,N,01803.2623,E,2.330197,60.06,141204,,*38
$GPGGA,104723.578,5920.8064,N,01803.2628,E,1,06,1.9,46.1,M,23.2,M,0.0,0000*45
$GPRMC,104723.578,A,5920.8064,N,01803.2628,E,1.340581,60.06,141204,,*32
$GPGGA,104724.578,5920.8066,N,01803.2630,E,1,05,2.8,46.2,M,23.2,M,0.0,0000*4B
$GPRMC,104724.578,A,5920.8066,N,01803.2630,E,0.452064,60.06,141204,,*35
$GPGGA,104725.578,5920.8066,N,01803.2629,E,1,06,1.9,47.2,M,23.2,M,0.0,0000*42
$GPRMC,104725.578,A,5920.8066,N,01803.2629,E,0.140332,60.06,141204,,*3A
$GPGGA,104726.578,5920.8067,N,01803.2624,E,1,06,1.9,48.3,M,23.2,M,0.0,0000*43
$GPRMC,104726.578,A,5920.8067,N,01803.2624,E,0.180849,60.06,141204,,*3E
$GPGGA,104727.578,5920.8068,N,01803.2617,E,1,06,1.9,49.3,M,23.2,M,0.0,0000*4C
$GPRMC,104727.578,A,5920.8068,N,01803.2617,E,0.132062,60.06,141204,,*38
$GPGGA,104728.578,5920.8070,N,01803.2608,E,1,05,2.8,49.9,M,23.2,M,0.0,0000*4F
$GPRMC,104728.578,A,5920.8070,N,01803.2608,E,0.101795,60.06,141204,,*3F
$GPGGA,104729.578,5920.8071,N,01803.2598,E,1,05,2.8,50.3,M,23.2,M,0.0,0000*47
$GPRMC,104729.578,A,5920.8071,N,01803.2598,E,0.099922,60.06,141204,,*37
$GPGGA,104730.578,5920.8074,N,01803.2585,E,1,06,1.9,50.7,M,23.2,M,0.0,0000*43
$GPRMC,104730.578,A,5920.8074,N,01803.2585,E,0.158770,60.06,141204,,*33
$GPGGA,104731.578,5920.8079,N,01803.2571,E,1,06,1.9,51.2,M,23.2,M,0.0,0000*40
$GPRMC,104731.578,A,5920.8079,N,01803.2571,E,0.122361,60.06,141204,,*3D
$GPGGA,104732.578,5920.8083,N,01803.2556,E,1,06,1.9,51.4,M,23.2,M,0.0,0000*45
$GPRMC,104732.578,A,5920.8083,N,01803.2556,E,0.146267,60.06,141204,,*3B
$GPGGA,104733.578,5920.8088,N,01803.2543,E,1,06,1.9,51.2,M,23.2,M,0.0,0000*4D
$GPRMC,104733.578,A,5920.8088,N,01803.2543,E,0.087351,60.06,141204,,*3D
$GPGGA,104734.578,5920.8092,N,01803.2530,E,1,06,1.9,51.0,M,23.2,M,0.0,0000*47
$GPRMC,104734.578,A,5920.8092,N,01803.2530,E,0.131498,60.06,141204,,*3B
$GPGGA,104735.578,5920.8096,N,01803.2522,E,1,05,2.8,50.7,M,23.2,M,0.0,0000*46
$GPRMC,104735.578,A,5920.8096,N,01803.2522,E,0.124489,60.06,141204,,*39
$GPGGA,104736.578,5920.8098,N,01803.2519,E,1,05,2.8,50.2,M,23.2,M,0.0,0000*46
$GPRMC,104736.578,A,5920.8098,N,01803.2519,E,0.241657,60.06,141204,,*3D
$GPGGA,104737.577,5920.8100,N,01803.2520,E,1,05,2.8,49.6,M,23.2,M,0.0,0000*4E
$GPRMC,104737.577,A,5920.8100,N,01803.2520,E,0.536732,60.06,141204,,*3C
$GPGGA,104738.577,5920.8102,N,01803.2526,E,1,06,1.9,48.6,M,23.2,M,0.0,0000*45
$GPRMC,104738.577,A,5920.8102,N,01803.2526,E,1.623735,64.69,141204,,*3B
$GPGGA,104739.577,5920.8104,N,01803.2538,E,1,06,1.9,47.5,M,23.2,M,0.0,0000*41
$GPRMC,104739.577,A,5920.8104,N,01803.2538,E,2.123324,68.79,141204,,*3E
$GPGGA,104740.577,5920.8107,N,01803.2553,E,1,06,1.9,46.2,M,23.2,M,0.0,0000*47
$GPRMC,104740.577,A,5920.8107,N,01803.2553,E,2.689505,66.17,141204,,*3A
$GPGGA,104741.577,5920.8110,N,01803.2570,E,1,06,1.9,44.8,M,23.2,M,0.0,0000*49
$GPRMC,104741.577,A,5920.8110,N,01803.2570,E,2.975767,61.39,141204,,*3D
$GPGGA,104742.577,5920.8113,N,01803.2588,E,1,06,1.9,43.8,M,23.2,M,0.0,0000*49
$GPRMC,104742.577,A,5920.8113,N,01803.2588,E,3.174172,62.04,141204,,*3D
$GPGGA,104743.577,5920.8116,N,01803.2607,E,1,06,1.9,42.9,M,23.2,M,0.0,0000*49
$GPRMC,104743.577,A,5920.8116,N,01803.2607,E,3.138321,64.83,141204,,*38
$GPGGA,104744.577,5920.8118,N,01803.2627,E,1,06,1.9,42.2,M,23.2,M,0.0,0000*49
$GPRMC,104744.577,A,5920.8118,N,01803.2627,E,3.273562,63.42,141204,,*34
$GPGGA,104745.577,5920.8121,N,01803.2647,E,1,06,1.9,41.6,M,23.2,M,0.0,0000*43
$GPRMC,104745.577,A,5920.8121,N,01803.2647,E,3.188894,60.64,141204,,*3D
$GPGGA,104746.577,5920.8125,N,01803.2664,E,1,06,1.9,41.5,M,23.2,M,0.0,0000*46
$GPRMC,104746.577,A,5920.8125,N,01803.2664,E,3.255752,58.12,141204,,*37
$GPGGA,104747.577,5920.8130,N,01803.2680,E,1,06,1.9,41.7,M,23.2,M,0.0,0000*4B
$GPRMC,104747.577,A,5920.8130,N,01803.2680,E,3.214576,59.27,141204,,*3E
$GPGGA,104748.577,5920.8133,N,01803.2696,E,1,05,2.8,41.7,M,23.2,M,0.0,0000*41
$GPRMC,104748.577,A,5920.8133,N,01803.2696,E,3.196903,62.91,141204,,*37
$GPGGA,104749.577,5920.8137,N,01803.2712,E,1,06,1.9,41.8,M,23.2,M,0.0,0000*47
$GPRMC,104749.577,A,5920.8137,N,01803.2712,E,3.236526,64.14,141204,,*36
$GPGGA,104750.576,5920.8140,N,01803.2728,E,1,05,2.8,42.0,M,23.2,M,0.0,0000*4D
$GPRMC,104750.576,A,5920.8140,N,01803.2728,E,3.238824,65.18,141204,,*3A
$GPGGA,104751.576,5920.8143,N,01803.2746,E,1,05,2.8,42.0,M,23.2,M,0.0,0000*47
$GPRMC,104751.576,A,5920.8143,N,01803.2746,E,3.212587,65.01,141204,,*34
$GPGGA,104752.576,5920.8147,N,01803.2762,E,1,06,1.9,42.1,M,23.2,M,0.0,0000*46
$GPRMC,104752.576,A,5920.8147,N,01803.2762,E,3.243749,64.76,141204,,*30
$GPGGA,104753.576,5920.8151,N,01803.2777,E,1,06,1.9,42.2,M,23.2,M,0.0,0000*47
$GPRMC,104753.576,A,5920.8151,N,01803.2777,E,3.262342,65.03,141204,,*3D
$GPGGA,104754.576,5920.8155,N,01803.2791,E,1,06,1.9,42.5,M,23.2,M,0.0,0000*4B
$GPRMC,104754.576,A,5920.8155,N,01803.2791,E,3.263313,63.15,141204,,*32
$GPGGA,104755.576,5920.8159,N,01803.2807,E,1,05,2.8,42.7,M,23.2,M,0.0,0000*45
$GPRMC,104755.576,A,5920.8159,N,01803.2807,E,3.236732,67.05,141204,,*3D
$GPGGA,104756.576,5920.8162,N,01803.2823,E,1,06,1.9,43.0,M,23.2,M,0.0,0000*4F
$GPRMC,104756.576,A,5920.8162,N,01803.2823,E,3.063892,65.72,141204,,*35
$GPGGA,104757.576,5920.8164,N,01803.2840,E,1,05,2.8,43.2,M,23.2,M,0.0,0000*4E
$GPRMC,104757.576,A,5920.8164,N,01803.2840,E,3.226838,76.38,141204,,*38
$GPGGA,104758.576,5920.8165,N,01803.2858,E,1,05,2.8,43.4,M,23.2,M,0.0,0000*4F
$GPRMC,104758.576,A,5920.8165,N,01803.2858,E,3.393122,76.21,141204,,*3A
$GPGGA,104759.576,5920.8167,N,01803.2876,E,1,05,2.8,43.4,M,23.2,M,0.0,0000*40
$GPRMC,104759.576,A,5920.8167,N,01803.2876,E,3.306559,65.71,141204,,*36
$GPGGA,104800.576,5920.8170,N,01803.2892,E,1,06,1.9,43.4,M,23.2,M,0.0,0000*4E
$GPRMC,104800.576,A,5920.8170,N,01803.2892,E,3.171941,57.45,141204,,*38
$GPGGA,104801.576,5920.8173,N,01803.2906,E,1,06,1.9,43.4,M,23.2,M,0.0,0000*40
$GPRMC,104801.576,A,5920.8173,N,01803.2906,E,3.159097,59.15,141204,,*35
$GPGGA,104802.576,5920.8177,N,01803.2920,E,1,06,1.9,43.4,M,23.2,M,0.0,0000*43
$GPRMC,104802.576,A,5920.8177,N,01803.2920,E,3.104864,53.37,141204,,*30
$GPGGA,104803.576,5920.8181,N,01803.2934,E,1,05,2.8,43.2,M,23.2,M,0.0,0000*49
$GPRMC,104803.576,A,5920.8181,N,01803.2934,E,3.090559,58.61,141204,,*3A
$GPGGA,104804.575,5920.8184,N,01803.2950,E,1,06,1.9,43.0,M,23.2,M,0.0,0000*49
$GPRMC,104804.575,A,5920.8184,N,01803.2950,E,3.300731,63.34,141204,,*37
$GPGGA,104805.575,5920.8187,N,01803.2967,E,1,06,1.9,42.7,M,23.2,M,0.0,0000*49
$GPRMC,104805.575,A,5920.8187,N,01803.2967,E,3.165378,61.69,141204,,*33
$GPGGA,104806.575,5920.8191,N,01803.2983,E,1,06,1.9,42.5,M,23.2,M,0.0,0000*45
$GPRMC,104806.575,A,5920.8191,N,01803.2983,E,3.218867,64.48,141204,,*37
$GPGGA,104807.575,5920.8194,N,01803.3001,E,1,06,1.9,42.2,M,23.2,M,0.0,0000*44
$GPRMC,104807.575,A,5920.8194,N,01803.3001,E,3.190981,68.25,141204,,*3C
$GPGGA,104808.575,5920.8197,N,01803.3020,E,1,06,1.9,41.5,M,23.2,M,0.0,0000*4F
$GPRMC,104808.575,A,5920.8197,N,01803.3020,E,3.192655,62.85,141204,,*37
$GPGGA,104809.575,5920.8199,N,01803.3039,E,1,06,1.9,40.9,M,23.2,M,0.0,0000*45
$GPRMC,104809.575,A,5920.8199,N,01803.3039,E,3.259520,62.22,141204,,*38
$GPGGA,104810.575,5920.8202,N,01803.3057,E,1,06,1.9,40.3,M,23.2,M,0.0,0000*4E
$GPRMC,104810.575,A,5920.8202,N,01803.3057,E,3.158374,59.03,141204,,*37
$GPGGA,104811.575,5920.8205,N,01803.3075,E,1,06,1.9,39.8,M,23.2,M,0.0,0000*4D
$GPRMC,104811.575,A,5920.8205,N,01803.3075,E,3.074138,62.95,141204,,*33
$GPGGA,104812.575,5920.8206,N,01803.3094,E,1,07,1.6,39.2,M,23.2,M,0.0,0000*46
$GPRMC,104812.575,A,5920.8206,N,01803.3094,E,3.278498,66.94,141204,,*38
$GPGGA,104813.575,5920.8208,N,01803.3113,E,1,07,1.6,39.0,M,23.2,M,0.0,0000*45
$GPRMC,104813.575,A,5920.8208,N,01803.3113,E,3.288664,59.71,141204,,*30
$GPGGA,104814.575,5920.8210,N,01803.3131,E,1,07,1.6,38.9,M,23.2,M,0.0,0000*43
$GPRMC,104814.575,A,5920.8210,N,01803.3131,E,3.088143,67.88,141204,,*35
$GPGGA,104815.575,5920.8209,N,01803.3148,E,1,07,1.6,38.8,M,23.2,M,0.0,0000*45
$GPRMC,104815.575,A,5920.8209,N,01803.3148,E,2.958540,91.55,141204,,*39
$GPGGA,104816.575,5920.8205,N,01803.3166,E,1,07,1.6,39.0,M,23.2,M,0.0,0000*4F
$GPRMC,104816.575,A,5920.8205,N,01803.3166,E,3.150940,110.20,141204,,*0D
$GPGGA,104817.575,5920.8198,N,01803.3182,E,1,07,1.6,39.4,M,23.2,M,0.0,0000*47
$GPRMC,104817.575,A,5920.8198,N,01803.3182,E,3.169085,131.66,141204,,*0A
$GPGGA,104818.574,5920.8189,N,01803.3197,E,1,06,2.4,39.8,M,23.2,M,0.0,0000*41
$GPRMC,104818.574,A,5920.8189,N,01803.3197,E,3.351271,132.43,141204,,*04
$GPGGA,104819.574,5920.8180,N,01803.3212,E,1,06,2.4,40.5,M,23.2,M,0.0,0000*44
$GPRMC,104819.574,A,5920.8180,N,01803.3212,E,3.250545,129.94,141204,,*02
$GPGGA,104820.574,5920.8171,N,01803.3226,E,1,06,2.4,41.4,M,23.2,M,0.0,0000*47
$GPRMC,104820.574,A,5920.8171,N,01803.3226,E,3.231365,132.66,141204,,*05
$GPGGA,104821.574,5920.8161,N,01803.3238,E,1,05,1.7,42.9,M,23.2,M,0.0,0000*45
$GPRMC,104821.574,A,5920.8161,N,01803.3238,E,3.095666,156.86,141204,,*0C
$GPGGA,104822.574,5920.8151,N,01803.3247,E,1,04,2.9,44.0,M,23.2,M,0.0,0000*4E
$GPRMC,104822.574,A,5920.8151,N,01803.3247,E,3.331505,148.96,141204,,*01
$GPGGA,104823.574,5920.8142,N,01803.3257,E,1,05,2.5,45.0,M,23.2,M,0.0,0000*40
$GPRMC,104823.574,A,5920.8142,N,01803.3257,E,3.274612,146.98,141204,,*06
$GPGGA,104824.574,5920.8133,N,01803.3268,E,1,06,2.1,46.2,M,23.2,M,0.0,0000*4B
$GPRMC,104824.574,A,5920.8133,N,01803.3268,E,3.518586,138.57,141204,,*02
$GPGGA,104825.574,5920.8127,N,01803.3284,E,1,06,1.6,47.5,M,23.2,M,0.0,0000*4F
$GPRMC,104825.574,A,5920.8127,N,01803.3284,E,3.054490,114.15,141204,,*07
$GPGGA,104826.574,5920.8124,N,01803.3301,E,1,05,2.5,48.4,M,23.2,M,0.0,0000*4E
$GPRMC,104826.574,A,5920.8124,N,01803.3301,E,3.160683,105.88,141204,,*09
$GPGGA,104827.574,5920.8121,N,01803.3319,E,1,06,2.1,49.0,M,23.2,M,0.0,0000*41
$GPRMC,104827.574,A,5920.8121,N,01803.3319,E,3.437285,103.79,141204,,*09
$GPGGA,104828.574,5920.8118,N,01803.3337,E,1,05,5.8,49.4,M,23.2,M,0.0,0000*41
$GPRMC,104828.574,A,5920.8118,N,01803.3337,E,3.221016,105.00,141204,,*01
$GPGGA,104829.574,5920.8114,N,01803.3352,E,1,05,5.9,49.9,M,23.2,M,0.0,0000*43
$GPRMC,104829.574,A,5920.8114,N,01803.3352,E,3.188762,108.60,141204,,*00
$GPGGA,104830.574,5920.8108,N,01803.3364,E,1,05,5.9,50.4,M,23.2,M,0.0,0000*46
$GPRMC,104830.574,A,5920.8108,N,01803.3364,E,3.025214,145.17,141204,,*0B
$GPGGA,104831.573,5920.8095,N,01803.3370,E,1,07,2.3,52.3,M,23.2,M,0.0,0000*4A
$GPRMC,104831.573,A,5920.8095,N,01803.3370,E,4.942876,161.53,141204,,*0A
$GPGGA,104832.573,5920.8084,N,01803.3378,E,1,05,3.3,53.5,M,23.2,M,0.0,0000*45
$GPRMC,104832.573,A,5920.8084,N,01803.3378,E,3.291546,138.66,141204,,*07
$GPGGA,104833.573,5920.8074,N,01803.3386,E,1,06,3.0,54.8,M,23.2,M,0.0,0000*40
$GPRMC,104833.573,A,5920.8074,N,01803.3386,E,3.697292,155.84,141204,,*03
$GPGGA,104834.573,5920.8061,N,01803.3390,E,1,06,2.1,56.9,M,23.2,M,0.0,0000*47
$GPRMC,104834.573,A,5920.8061,N,01803.3390,E,3.769182,154.23,141204,,*09
$GPGGA,104835.573,5920.8047,N,01803.3397,E,1,08,1.5,59.2,M,23.2,M,0.0,0000*48
$GPRMC,104835.573,A,5920.8047,N,01803.3397,E,3.934621,148.01,141204,,*0E
$GPGGA,104836.573,5920.8033,N,01803.3403,E,1,06,2.1,61.7,M,23.2,M,0.0,0000*45
$GPRMC,104836.573,A,5920.8033,N,01803.3403,E,3.969476,154.75,141204,,*02
$GPGGA,104837.573,5920.8018,N,01803.3409,E,1,07,2.0,64.0,M,23.2,M,0.0,0000*45
$GPRMC,104837.573,A,5920.8018,N,01803.3409,E,3.929414,151.49,141204,,*0A
$GPGGA,104838.573,5920.8004,N,01803.3415,E,1,05,3.1,66.1,M,23.2,M,0.0,0000*4B
$GPRMC,104838.573,A,5920.8004,N,01803.3415,E,3.942787,151.42,141204,,*0A
$GPGGA,104839.573,5920.7989,N,01803.3420,E,1,06,3.0,68.1,M,23.2,M,0.0,0000*43
$GPRMC,104839.573,A,5920.7989,N,01803.3420,E,4.086626,154.80,141204,,*09
$GPGGA,104840.573,5920.7974,N,01803.3426,E,1,07,2.0,70.4,M,23.2,M,0.0,0000*45
$GPRMC,104840.573,A,5920.7974,N,01803.3426,E,4.155342,152.11,141204,,*05
$GPGGA,104841.573,5920.7961,N,01803.3431,E,1,06,2.1,72.5,M,23.2,M,0.0,0000*45
$GPRMC,104841.573,A,5920.7961,N,01803.3431,E,3.312204,152.98,141204,,*02
$GPGGA,104842.573,5920.7949,N,01803.3436,E,1,04,5.9,74.1,M,23.2,M,0.0,0000*44
$GPRMC,104842.573,A,5920.7949,N,01803.3436,E,3.974336,152.55,141204,,*07
$GPGGA,104843.573,5920.7935,N,01803.3440,E,1,05,3.1,75.8,M,23.2,M,0.0,0000*48
$GPRMC,104843.573,A,5920.7935,N,01803.3440,E,4.210735,153.97,141204,,*0A
$GPGGA,104844.573,5920.7922,N,01803.3448,E,1,04,5.9,76.8,M,23.2,M,0.0,0000*4D
$GPRMC,104844.573,A,5920.7922,N,01803.3448,E,4.222648,156.94,141204,,*0F
$GPGGA,104845.572,5920.7909,N,01803.3456,E,1,04,5.9,77.6,M,23.2,M,0.0,0000*44
$GPRMC,104845.572,A,5920.7909,N,01803.3456,E,4.141055,150.85,141204,,*03
$GPGGA,104846.572,5920.7897,N,01803.3465,E,1,04,5.9,78.7,M,23.2,M,0.0,0000*4F
$GPRMC,104846.572,A,5920.7897,N,01803.3465,E,4.238457,153.73,141204,,*07
$GPGGA,104847.572,5920.7884,N,01803.3473,E,1,04,5.9,79.7,M,23.2,M,0.0,0000*4A
$GPRMC,104847.572,A,5920.7884,N,01803.3473,E,4.284163,154.70,141204,,*02
$GPGGA,104848.572,5920.7871,N,01803.3480,E,1,05,5.9,80.9,M,23.2,M,0.0,0000*4A
$GPRMC,104848.572,A,5920.7871,N,01803.3480,E,4.347314,160.40,141204,,*03
$GPGGA,104849.572,5920.7854,N,01803.3487,E,1,07,2.3,83.0,M,23.2,M,0.0,0000*4E
$GPRMC,104849.572,A,5920.7854,N,01803.3487,E,4.794135,160.02,141204,,*0F
$GPGGA,104850.572,5920.7840,N,01803.3498,E,1,06,2.4,84.9,M,23.2,M,0.0,0000*45
$GPRMC,104850.572,A,5920.7840,N,01803.3498,E,4.385409,157.88,141204,,*04
$GPGGA,104851.572,5920.7827,N,01803.3509,E,1,06,2.4,86.6,M,23.2,M,0.0,0000*41
$GPRMC,104851.572,A,5920.7827,N,01803.3509,E,4.152913,158.58,141204,,*01
$GPGGA,104852.572,5920.7815,N,01803.3517,E,1,05,5.2,88.1,M,23.2,M,0.0,0000*47
$GPRMC,104852.572,A,5920.7815,N,01803.3517,E,4.248010,167.07,141204,,*08
$GPGGA,104853.572,5920.7803,N,01803.3526,E,1,05,3.1,89.2,M,23.2,M,0.0,0000*44
$GPRMC,104853.572,A,5920.7803,N,01803.3526,E,3.913689,151.91,141204,,*02
$GPGGA,104854.572,5920.7793,N,01803.3536,E,1,03,18.7,89.8,M,23.2,M,0.0,0000*74
$GPRMC,104854.572,A,5920.7793,N,01803.3536,E,3.796853,157.80,141204,,*0E
$GPGGA,104855.572,5920.7782,N,01803.3544,E,1,05,5.9,90.1,M,23.2,M,0.0,0000*45
$GPRMC,104855.572,A,5920.7782,N,01803.3544,E,3.858494,160.13,141204,,*0E
$GPGGA,104856.572,5920.7771,N,01803.3553,E,1,05,3.3,90.1,M,23.2,M,0.0,0000*40
$GPRMC,104856.572,A,5920.7771,N,01803.3553,E,3.591052,159.91,141204,,*01
$GPGGA,104857.572,5920.7761,N,01803.3567,E,1,05,2.5,91.5,M,23.2,M,0.0,0000*45
$GPRMC,104857.572,A,5920.7761,N,01803.3567,E,3.226104,153.26,141204,,*09
$GPGGA,104858.571,5920.7751,N,01803.3581,E,1,05,2.5,92.9,M,23.2,M,0.0,0000*4D
$GPRMC,104858.571,A,5920.7751,N,01803.3581,E,3.850954,160.27,141204,,*09
$GPGGA,104859.571,5920.7738,N,01803.3588,E,1,05,3.1,94.2,M,23.2,M,0.0,0000*42
$GPRMC,104859.571,A,5920.7738,N,01803.3588,E,3.911350,161.16,141204,,*07
$GPGGA,104900.571,5920.7727,N,01803.3596,E,1,04,3.5,94.8,M,23.2,M,0.0,0000*41
$GPRMC,104900.571,A,5920.7727,N,01803.3596,E,3.686983,159.56,141204,,*01
$GPGGA,104901.571,5920.7716,N,01803.3606,E,1,04,32.0,95.7,M,23.2,M,0.0,0000*71
$GPRMC,104901.571,A,5920.7716,N,01803.3606,E,3.865173,156.70,141204,,*07
$GPGGA,104902.571,5920.7706,N,01803.3617,E,1,03,18.7,96.3,M,23.2,M,0.0,0000*7C
$GPRMC,104902.571,A,5920.7706,N,01803.3617,E,3.654876,156.21,141204,,*01
$GPGGA,104903.571,5920.7694,N,01803.3630,E,1,05,3.3,96.4,M,23.2,M,0.0,0000*4D
$GPRMC,104903.571,A,5920.7694,N,01803.3630,E,3.604303,157.26,141204,,*05
$GPGGA,104904.571,5920.7685,N,01803.3637,E,1,05,3.3,96.8,M,23.2,M,0.0,0000*41
$GPRMC,104904.571,A,5920.7685,N,01803.3637,E,3.496557,157.76,141204,,*0E
$GPGGA,104905.571,5920.7677,N,01803.3653,E,1,06,2.4,98.3,M,23.2,M,0.0,0000*4F
$GPRMC,104905.571,A,5920.7677,N,01803.3653,E,3.435099,158.29,141204,,*0B
$GPGGA,104906.571,5920.7667,N,01803.3663,E,1,05,5.2,99.3,M,23.2,M,0.0,0000*4D
$GPRMC,104906.571,A,5920.7667,N,01803.3663,E,3.512672,155.62,141204,,*0F
$GPGGA,104907.571,5920.7656,N,01803.3669,E,1,05,3.1,100.5,M,23.2,M,0.0,0000*76
$GPRMC,104907.571,A,5920.7656,N,01803.3669,E,3.555368,159.67,141204,,*02
$GPGGA,104908.571,5920.7646,N,01803.3676,E,1,05,3.1,101.4,M,23.2,M,0.0,0000*76
$GPRMC,104908.571,A,5920.7646,N,01803.3676,E,2.977277,145.82,141204,,*06
$GPGGA,104909.571,5920.7636,N,01803.3677,E,1,05,5.9,102.2,M,23.2,M,0.0,0000*7A
$GPRMC,104909.571,A,5920.7636,N,01803.3677,E,3.163364,195.67,141204,,*08
$GPGGA,104910.571,5920.7625,N,01803.3677,E,1,04,8.5,102.8,M,23.2,M,0.0,0000*7A
$GPRMC,104910.571,A,5920.7625,N,01803.3677,E,3.836801,162.53,141204,,*0C
$GPGGA,104911.571,5920.7615,N,01803.3686,E,1,05,8.3,103.5,M,23.2,M,0.0,0000*7D
$GPRMC,104911.571,A,5920.7615,N,01803.3686,E,3.611035,155.54,141204,,*07
$GPGGA,104912.570,5920.7605,N,01803.3694,E,1,03,18.7,103.9,M,23.2,M,0.0,0000*42
$GPRMC,104912.570,A,5920.7605,N,01803.3694,E,3.598947,159.25,141204,,*03
$GPGGA,104913.570,5920.7595,N,01803.3705,E,1,04,3.5,103.3,M,23.2,M,0.0,0000*75
$GPRMC,104913.570,A,5920.7595,N,01803.3705,E,3.930759,160.02,141204,,*01
$GPGGA,104914.570,5920.7587,N,01803.3714,E,1,04,3.5,102.8,M,23.2,M,0.0,0000*7B
$GPRMC,104914.570,A,5920.7587,N,01803.3714,E,3.530641,155.24,141204,,*03
$GPGGA,104915.570,5920.7577,N,01803.3718,E,1,05,3.1,102.9,M,23.2,M,0.0,0000*7D
$GPRMC,104915.570,A,5920.7577,N,01803.3718,E,3.424634,154.49,141204,,*0D
$GPGGA,104916.570,5920.7569,N,01803.3726,E,1,05,3.1,102.4,M,23.2,M,0.0,0000*71
$GPRMC,104916.570,A,5920.7569,N,01803.3726,E,3.308846,153.30,141204,,*07
$GPGGA,104917.570,5920.7562,N,01803.3737,E,1,05,2.5,102.9,M,23.2,M,0.0,0000*73
$GPRMC,104917.570,A,5920.7562,N,01803.3737,E,3.177941,151.82,141204,,*0A
$GPGGA,104918.570,5920.7553,N,01803.3744,E,1,06,3.0,102.9,M,23.2,M,0.0,0000*7D
$GPRMC,104918.570,A,5920.7553,N,01803.3744,E,3.253703,155.84,141204,,*0C
$GPGGA,104919.570,5920.7549,N,01803.3755,E,1,07,1.6,102.6,M,23.2,M,0.0,0000*7D
$GPRMC,104919.570,A,5920.7549,N,01803.3755,E,2.992130,152.44,141204,,*0C
$GPGGA,104920.570,5920.7542,N,01803.3766,E,1,07,2.3,102.8,M,23.2,M,0.0,0000*74
$GPRMC,104920.570,A,5920.7542,N,01803.3766,E,2.825868,150.53,141204,,*00
$GPGGA,104921.570,5920.7536,N,01803.3779,E,1,05,2.5,103.5,M,23.2,M,0.0,0000*70
$GPRMC,104921.570,A,5920.7536,N,01803.3779,E,2.273413,148.72,141204,,*0F
$GPGGA,104922.570,5920.7532,N,01803.3795,E,1,05,2.5,104.5,M,23.2,M,0.0,0000*72
$GPRMC,104922.570,A,5920.7532,N,01803.3795,E,2.410761,149.69,141204,,*04
$GPGGA,104923.570,5920.7527,N,01803.3811,E,1,06,1.8,105.6,M,23.2,M,0.0,0000*7B
$GPRMC,104923.570,A,5920.7527,N,01803.3811,E,2.624597,168.24,141204,,*06
$GPGGA,104924.570,5920.7521,N,01803.3827,E,1,06,2.3,107.0,M,23.2,M,0.0,0000*73
$GPRMC,104924.570,A,5920.7521,N,01803.3827,E,2.687140,154.22,141204,,*0C
$GPGGA,104925.570,5920.7514,N,01803.3844,E,1,05,2.5,108.3,M,23.2,M,0.0,0000*78
$GPRMC,104925.570,A,5920.7514,N,01803.3844,E,3.068209,154.14,141204,,*03
$GPGGA,104926.569,5920.7508,N,01803.3861,E,1,06,1.8,108.9,M,23.2,M,0.0,0000*7E
$GPRMC,104926.569,A,5920.7508,N,01803.3861,E,2.984986,154.01,141204,,*00
$GPGGA,104927.569,5920.7503,N,01803.3877,E,1,05,2.5,109.2,M,23.2,M,0.0,0000*74
$GPRMC,104927.569,A,5920.7503,N,01803.3877,E,2.950500,152.07,141204,,*06
$GPGGA,104928.569,5920.7497,N,01803.3893,E,1,07,1.6,109.7,M,23.2,M,0.0,0000*7A
$GPRMC,104928.569,A,5920.7497,N,01803.3893,E,2.960670,152.01,141204,,*0E
$GPGGA,104929.569,5920.7490,N,01803.3906,E,1,04,6.0,109.9,M,23.2,M,0.0,0000*7D
$GPRMC,104929.569,A,5920.7490,N,01803.3906,E,3.047047,153.40,141204,,*0E
$GPGGA,104930.569,5920.7485,N,01803.3920,E,1,04,2.9,109.2,M,23.2,M,0.0,0000*73
$GPRMC,104930.569,A,5920.7485,N,01803.3920,E,3.150177,150.66,141204,,*04
$GPGGA,104931.569,5920.7478,N,01803.3929,E,1,06,3.0,108.9,M,23.2,M,0.0,0000*79
$GPRMC,104931.569,A,5920.7478,N,01803.3929,E,3.045451,152.63,141204,,*0D
$GPGGA,104932.569,5920.7471,N,01803.3937,E,1,06,3.0,108.7,M,23.2,M,0.0,0000*72
$GPRMC,104932.569,A,5920.7471,N,01803.3937,E,3.145561,146.85,141204,,*06
$GPGGA,104933.569,5920.7463,N,01803.3945,E,1,05,3.1,108.6,M,23.2,M,0.0,0000*76
$GPRMC,104933.569,A,5920.7463,N,01803.3945,E,3.339828,149.52,141204,,*0D
$GPGGA,104934.569,5920.7454,N,01803.3951,E,1,04,6.0,108.5,M,23.2,M,0.0,0000*76
$GPRMC,104934.569,A,5920.7454,N,01803.3951,E,3.241234,154.99,141204,,*09
$GPGGA,104935.569,5920.7446,N,01803.3953,E,1,05,3.1,108.2,M,23.2,M,0.0,0000*74
$GPRMC,104935.569,A,5920.7446,N,01803.3953,E,3.180801,152.99,141204,,*0D
$GPGGA,104936.569,5920.7436,N,01803.3956,E,1,05,3.1,108.3,M,23.2,M,0.0,0000*74
$GPRMC,104936.569,A,5920.7436,N,01803.3956,E,3.389557,159.56,141204,,*01
$GPGGA,104937.569,5920.7427,N,01803.3960,E,1,04,6.0,108.4,M,23.2,M,0.0,0000*72
$GPRMC,104937.569,A,5920.7427,N,01803.3960,E,3.379742,155.37,141204,,*07
$GPGGA,104938.569,5920.7416,N,01803.3963,E,1,04,3.5,108.6,M,23.2,M,0.0,0000*7E
$GPRMC,104938.569,A,5920.7416,N,01803.3963,E,3.394189,150.29,141204,,*01
$GPGGA,104939.568,5920.7406,N,01803.3967,E,1,06,3.0,108.7,M,23.2,M,0.0,0000*7D
$GPRMC,104939.568,A,5920.7406,N,01803.3967,E,3.447660,159.89,141204,,*0E
$GPGGA,104940.568,5920.7398,N,01803.3971,E,1,04,3.5,108.4,M,23.2,M,0.0,0000*70
$GPRMC,104940.568,A,5920.7398,N,01803.3971,E,3.294726,151.44,141204,,*05
$GPGGA,104941.568,5920.7389,N,01803.3975,E,1,04,6.0,108.2,M,23.2,M,0.0,0000*73
$GPRMC,104941.568,A,5920.7389,N,01803.3975,E,3.323116,157.93,141204,,*04
$GPGGA,104942.568,5920.7379,N,01803.3978,E,1,04,6.0,107.9,M,23.2,M,0.0,0000*76
$GPRMC,104942.568,A,5920.7379,N,01803.3978,E,3.502897,165.20,141204,,*09
$GPGGA,104943.568,5920.7368,N,01803.3981,E,1,05,2.5,108.1,M,23.2,M,0.0,0000*76
$GPRMC,104943.568,A,5920.7368,N,01803.3981,E,3.454975,160.22,141204,,*06
$GPGGA,104944.568,5920.7361,N,01803.3989,E,1,04,3.5,107.9,M,23.2,M,0.0,0000*77
$GPRMC,104944.568,A,5920.7361,N,01803.3989,E,3.340370,142.79,141204,,*03
$GPGGA,104945.568,5920.7351,N,01803.3997,E,1,07,2.3,108.3,M,23.2,M,0.0,0000*7B
$GPRMC,104945.568,A,5920.7351,N,01803.3997,E,3.764375,163.42,141204,,*02
$GPGGA,104946.568,5920.7341,N,01803.4002,E,1,03,18.7,108.5,M,23.2,M,0.0,0000*46
$GPRMC,104946.568,A,5920.7341,N,01803.4002,E,3.159360,158.52,141204,,*07
$GPGGA,104947.568,5920.7330,N,01803.4006,E,1,05,3.1,108.5,M,23.2,M,0.0,0000*7F
$GPRMC,104947.568,A,5920.7330,N,01803.4006,E,3.215292,159.53,141204,,*03
$GPGGA,104948.568,5920.7322,N,01803.4012,E,1,03,18.7,108.5,M,23.2,M,0.0,0000*4C
$GPRMC,104948.568,A,5920.7322,N,01803.4012,E,3.305152,159.39,141204,,*09
$GPGGA,104949.568,5920.7313,N,01803.4018,E,1,03,18.7,108.3,M,23.2,M,0.0,0000*43
$GPRMC,104949.568,A,5920.7313,N,01803.4018,E,3.281907,157.10,141204,,*00
$GPGGA,104950.568,5920.7305,N,01803.4026,E,1,04,31.0,108.4,M,23.2,M,0.0,0000*4D
$GPRMC,104950.568,A,5920.7305,N,01803.4026,E,3.155557,153.52,141204,,*03
$GPGGA,104951.568,5920.7300,N,01803.4043,E,1,07,2.3,108.8,M,23.2,M,0.0,0000*76
$GPRMC,104951.568,A,5920.7300,N,01803.4043,E,2.967541,148.18,141204,,*0F
$GPGGA,104952.568,5920.7291,N,01803.4051,E,1,06,5.2,109.6,M,23.2,M,0.0,0000*77
$GPRMC,104952.568,A,5920.7291,N,01803.4051,E,3.277498,156.41,141204,,*0B
$GPGGA,104953.567,5920.7282,N,01803.4061,E,1,04,31.0,110.1,M,23.2,M,0.0,0000*40
$GPRMC,104953.567,A,5920.7282,N,01803.4061,E,3.355098,149.68,141204,,*04
$GPGGA,104954.567,5920.7267,N,01803.4072,E,1,05,5.2,112.8,M,23.2,M,0.0,0000*71
$GPRMC,104954.567,A,5920.7267,N,01803.4072,E,3.433482,153.72,141204,,*02
$GPGGA,104955.567,5920.7258,N,01803.4080,E,1,06,5.2,113.2,M,23.2,M,0.0,0000*79
$GPRMC,104955.567,A,5920.7258,N,01803.4080,E,3.524601,154.82,141204,,*04
$GPGGA,104956.567,5920.7246,N,01803.4088,E,1,05,5.2,114.3,M,23.2,M,0.0,0000*78
$GPRMC,104956.567,A,5920.7246,N,01803.4088,E,3.728352,162.36,141204,,*07
$GPGGA,104957.567,5920.7234,N,01803.4092,E,1,04,6.0,115.0,M,23.2,M,0.0,0000*75
$GPRMC,104957.567,A,5920.7234,N,01803.4092,E,3.680439,159.15,141204,,*08
$GPGGA,104958.567,5920.7222,N,01803.4095,E,1,04,6.0,115.8,M,23.2,M,0.0,0000*72
$GPRMC,104958.567,A,5920.7222,N,01803.4095,E,3.745279,158.29,141204,,*03
$GPGGA,104959.567,5920.7210,N,01803.4100,E,1,04,6.0,116.5,M,23.2,M,0.0,0000*71
$GPRMC,104959.567,A,5920.7210,N,01803.4100,E,3.877075,158.93,141204,,*0F
$GPGGA,105000.567,5920.7199,N,01803.4105,E,1,04,6.0,117.1,M,23.2,M,0.0,0000*77
$GPRMC,105000.567,A,5920.7199,N,01803.4105,E,3.737781,159.69,141204,,*0F
$GPGGA,105001.567,5920.7187,N,01803.4109,E,1,04,6.0,117.8,M,23.2,M,0.0,0000*7C
$GPRMC,105001.567,A,5920.7187,N,01803.4109,E,3.915129,160.06,141204,,*04
$GPGGA,105002.567,5920.7177,N,01803.4115,E,1,04,6.0,118.2,M,23.2,M,0.0,0000*78
$GPRMC,105002.567,A,5920.7177,N,01803.4115,E,3.165315,146.84,141204,,*09
$GPGGA,105003.567,5920.7169,N,01803.4121,E,1,03,18.8,118.3,M,23.2,M,0.0,0000*40
$GPRMC,105003.567,A,5920.7169,N,01803.4121,E,3.552250,160.36,141204,,*0D
$GPGGA,105004.567,5920.7161,N,01803.4127,E,1,03,18.8,118.1,M,23.2,M,0.0,0000*4B
$GPRMC,105004.567,A,5920.7161,N,01803.4127,E,3.612539,156.09,141204,,*02
$GPGGA,105005.567,5920.7152,N,01803.4134,E,1,03,18.8,117.9,M,23.2,M,0.0,0000*4F
$GPRMC,105005.567,A,5920.7152,N,01803.4134,E,3.527726,149.63,141204,,*0A
$GPGGA,105006.566,5920.7145,N,01803.4143,E,1,03,18.8,117.6,M,23.2,M,0.0,0000*44
$GPRMC,105006.566,A,5920.7145,N,01803.4143,E,3.342449,145.82,141204,,*02
$GPGGA,105007.566,5920.7137,N,01803.4149,E,1,04,6.0,117.1,M,23.2,M,0.0,0000*7D
$GPRMC,105007.566,A,5920.7137,N,01803.4149,E,3.329374,148.48,141204,,*03
$GPGGA,105008.566,5920.7128,N,01803.4154,E,1,04,6.0,117.0,M,23.2,M,0.0,0000*71
$GPRMC,105008.566,A,5920.7128,N,01803.4154,E,3.447513,158.02,141204,,*09
$GPGGA,105009.566,5920.7119,N,01803.4156,E,1,03,18.8,116.8,M,23.2,M,0.0,0000*49
$GPRMC,105009.566,A,5920.7119,N,01803.4156,E,4.025548,177.52,141204,,*09
$GPGGA,105010.566,5920.7104,N,01803.4147,E,1,04,6.0,116.9,M,23.2,M,0.0,0000*7C
$GPRMC,105010.566,A,5920.7104,N,01803.4147,E,4.636506,186.81,141204,,*03
$GPGGA,105011.566,5920.7097,N,01803.4147,E,1,04,3.5,115.8,M,23.2,M,0.0,0000*74
$GPRMC,105011.566,A,5920.7097,N,01803.4147,E,3.202289,156.96,141204,,*06
$GPGGA,105012.566,5920.7091,N,01803.4152,E,1,03,18.8,115.4,M,23.2,M,0.0,0000*49
$GPRMC,105012.566,A,5920.7091,N,01803.4152,E,3.307114,164.53,141204,,*0C
$GPGGA,105013.566,5920.7083,N,01803.4154,E,1,03,18.8,114.9,M,23.2,M,0.0,0000*41
$GPRMC,105013.566,A,5920.7083,N,01803.4154,E,3.324775,167.78,141204,,*02
$GPGGA,105014.566,5920.7076,N,01803.4155,E,1,04,6.0,114.0,M,23.2,M,0.0,0000*74
$GPRMC,105014.566,A,5920.7076,N,01803.4155,E,3.420256,168.98,141204,,*08
$GPGGA,105015.566,5920.7067,N,01803.4155,E,1,05,3.1,113.6,M,23.2,M,0.0,0000*71
$GPRMC,105015.566,A,5920.7067,N,01803.4155,E,3.942464,169.45,141204,,*06
$GPGGA,105016.566,5920.7071,N,01803.4163,E,1,05,3.1,110.7,M,23.2,M,0.0,0000*72
$GPRMC,105016.566,A,5920.7071,N,01803.4163,E,3.030061,149.26,141204,,*0D
$GPGGA,105017.566,5920.7066,N,01803.4172,E,1,03,18.8,110.0,M,23.2,M,0.0,0000*47
$GPRMC,105017.566,A,5920.7066,N,01803.4172,E,3.177013,148.44,141204,,*08
$GPGGA,105018.566,5920.7070,N,01803.4180,E,1,05,3.1,107.4,M,23.2,M,0.0,0000*75
$GPRMC,105018.566,A,5920.7070,N,01803.4180,E,3.272460,146.32,141204,,*04
$GPGGA,105019.566,5920.7066,N,01803.4187,E,1,05,3.1,106.3,M,23.2,M,0.0,0000*72
$GPRMC,105019.566,A,5920.7066,N,01803.4187,E,3.277000,149.07,141204,,*0B
$GPGGA,105020.565,5920.7058,N,01803.4196,E,1,03,18.8,106.1,M,23.2,M,0.0,0000*41
$GPRMC,105020.565,A,5920.7058,N,01803.4196,E,3.102116,148.67,141204,,*0F
$GPGGA,105021.565,5920.7054,N,01803.4202,E,1,05,3.1,105.0,M,23.2,M,0.0,0000*75
$GPRMC,105021.565,A,5920.7054,N,01803.4202,E,3.091917,151.48,141204,,*0B
$GPGGA,105022.565,5920.7050,N,01803.4211,E,1,05,3.1,103.9,M,23.2,M,0.0,0000*7F
$GPRMC,105022.565,A,5920.7050,N,01803.4211,E,3.064664,149.75,141204,,*08
$GPGGA,105023.565,5920.7043,N,01803.4220,E,1,03,18.8,103.6,M,23.2,M,0.0,0000*44
$GPRMC,105023.565,A,5920.7043,N,01803.4220,E,3.132724,147.29,141204,,*09
$GPGGA,105024.565,5920.7036,N,01803.4229,E,1,03,18.8,103.4,M,23.2,M,0.0,0000*4A
$GPRMC,105024.565,A,5920.7036,N,01803.4229,E,3.032396,149.07,141204,,*0B
$GPGGA,105025.565,5920.7029,N,01803.4237,E,1,03,18.8,103.1,M,23.2,M,0.0,0000*4F
$GPRMC,105025.565,A,5920.7029,N,01803.4237,E,3.027694,151.84,141204,,*0A
$GPGGA,105026.565,5920.7021,N,01803.4245,E,1,03,18.8,102.9,M,23.2,M,0.0,0000*48
$GPRMC,105026.565,A,5920.7021,N,01803.4245,E,3.174134,151.57,141204,,*00
$GPGGA,105027.565,5920.7016,N,01803.4250,E,1,06,2.4,100.9,M,23.2,M,0.0,0000*79
$GPRMC,105027.565,A,5920.7016,N,01803.4250,E,3.061314,144.09,141204,,*0B
$GPGGA,105028.565,5920.7012,N,01803.4262,E,1,05,5.3,99.8,M,23.2,M,0.0,0000*40
$GPRMC,105028.565,A,5920.7012,N,01803.4262,E,2.848756,145.05,141204,,*0C
$GPGGA,105029.565,5920.7007,N,01803.4275,E,1,05,5.3,99.0,M,23.2,M,0.0,0000*4B
$GPRMC,105029.565,A,5920.7007,N,01803.4275,E,3.478256,151.19,141204,,*0C
$GPGGA,105030.565,5920.7001,N,01803.4287,E,1,06,5.2,98.0,M,23.2,M,0.0,0000*4B
$GPRMC,105030.565,A,5920.7001,N,01803.4287,E,3.231335,146.02,141204,,*0C
$GPGGA,105031.565,5920.7005,N,01803.4300,E,1,06,2.4,94.9,M,23.2,M,0.0,0000*44
$GPRMC,105031.565,A,5920.7005,N,01803.4300,E,3.052230,146.30,141204,,*05
$GPGGA,105032.565,5920.7015,N,01803.4315,E,1,06,2.4,90.5,M,23.2,M,0.0,0000*4A
$GPRMC,105032.565,A,5920.7015,N,01803.4315,E,2.987485,143.90,141204,,*04
$GPGGA,105033.564,5920.7026,N,01803.4328,E,1,07,1.6,86.1,M,23.2,M,0.0,0000*47
$GPRMC,105033.564,A,5920.7026,N,01803.4328,E,3.097796,147.45,141204,,*0E
$GPGGA,105034.564,5920.7034,N,01803.4340,E,1,05,2.5,81.9,M,23.2,M,0.0,0000*40
$GPRMC,105034.564,A,5920.7034,N,01803.4340,E,3.076364,150.25,141204,,*02
$GPGGA,105035.564,5920.7049,N,01803.4351,E,1,07,1.6,76.1,M,23.2,M,0.0,0000*49
$GPRMC,105035.564,A,5920.7049,N,01803.4351,E,2.544728,128.22,141204,,*08
$GPGGA,105036.564,5920.7060,N,01803.4361,E,1,06,2.1,71.5,M,23.2,M,0.0,0000*44
$GPRMC,105036.564,A,5920.7060,N,01803.4361,E,2.474214,146.38,141204,,*08
$GPGGA,105037.564,5920.7070,N,01803.4362,E,1,06,2.1,67.1,M,23.2,M,0.0,0000*44
$GPRMC,105037.564,A,5920.7070,N,01803.4362,E,2.255090,183.60,141204,,*04
$GPGGA,105038.564,5920.7079,N,01803.4361,E,1,06,2.1,63.3,M,23.2,M,0.0,0000*47
$GPRMC,105038.564,A,5920.7079,N,01803.4361,E,2.273370,158.11,141204,,*08
$GPGGA,105039.564,5920.7087,N,01803.4363,E,1,05,2.2,59.8,M,23.2,M,0.0,0000*47
$GPRMC,105039.564,A,5920.7087,N,01803.4363,E,2.331715,161.75,141204,,*02
$GPGGA,105040.564,5920.7093,N,01803.4365,E,1,06,2.1,57.2,M,23.2,M,0.0,0000*4E
$GPRMC,105040.564,A,5920.7093,N,01803.4365,E,1.861207,134.79,141204,,*08
$GPGGA,105041.564,5920.7096,N,01803.4368,E,1,06,3.0,55.7,M,23.2,M,0.0,0000*40
$GPRMC,105041.564,A,5920.7096,N,01803.4368,E,2.515009,155.98,141204,,*08
$GPGGA,105042.564,5920.7094,N,01803.4369,E,1,04,3.5,54.9,M,23.2,M,0.0,0000*48
$GPRMC,105042.564,A,5920.7094,N,01803.4369,E,3.339960,169.21,141204,,*0A
$GPGGA,105043.564,5920.7089,N,01803.4367,E,1,03,14.6,54.2,M,23.2,M,0.0,0000*72
$GPRMC,105043.564,A,5920.7089,N,01803.4367,E,2.964541,183.91,141204,,*0A
$GPGGA,105044.564,5920.7085,N,01803.4369,E,1,03,14.6,53.6,M,23.2,M,0.0,0000*74
$GPRMC,105044.564,A,5920.7085,N,01803.4369,E,2.349811,145.21,141204,,*03
$GPGGA,105045.564,5920.7081,N,01803.4373,E,1,03,14.2,53.1,M,23.2,M,0.0,0000*79
$GPRMC,105045.564,A,5920.7081,N,01803.4373,E,2.628922,155.31,141204,,*0E
$GPGGA,105046.564,5920.7076,N,01803.4374,E,1,04,6.0,52.5,M,23.2,M,0.0,0000*46
$GPRMC,105046.564,A,5920.7076,N,01803.4374,E,2.806476,157.90,141204,,*05
$GPGGA,105047.563,5920.7070,N,01803.4377,E,1,06,3.0,52.7,M,23.2,M,0.0,0000*40
$GPRMC,105047.563,A,5920.7070,N,01803.4377,E,2.714046,139.56,141204,,*0F
$GPGGA,105048.563,5920.7065,N,01803.4383,E,1,04,4.6,52.5,M,23.2,M,0.0,0000*41
$GPRMC,105048.563,A,5920.7065,N,01803.4383,E,2.638977,131.56,141204,,*03
$GPGGA,105049.563,5920.7059,N,01803.4392,E,1,02,0.0,52.3,M,23.2,M,0.0,0000*4D
$GPRMC,105049.563,A,5920.7059,N,01803.4392,E,2.769015,132.08,141204,,*0D
$GPGGA,105050.563,5920.7043,N,01803.4377,E,1,05,3.1,54.0,M,23.2,M,0.0,0000*45
$GPRMC,105050.563,A,5920.7043,N,01803.4377,E,2.719962,156.22,141204,,*01
$GPGGA,105051.563,5920.7037,N,01803.4383,E,1,04,50.0,53.7,M,23.2,M,0.0,0000*7A
$GPRMC,105051.563,A,5920.7037,N,01803.4383,E,2.370759,142.60,141204,,*06
$GPGGA,105052.563,5920.7025,N,01803.4378,E,1,06,3.0,54.4,M,23.2,M,0.0,0000*4E
$GPRMC,105052.563,A,5920.7025,N,01803.4378,E,3.158692,170.15,141204,,*0E
$GPGGA,105053.563,5920.7016,N,01803.4380,E,1,04,4.6,54.3,M,23.2,M,0.0,0000*4C
$GPRMC,105053.563,A,5920.7016,N,01803.4380,E,2.726981,152.84,141204,,*03
$GPGGA,105054.563,5920.7010,N,01803.4386,E,1,05,6.0,54.0,M,23.2,M,0.0,0000*4D
$GPRMC,105054.563,A,5920.7010,N,01803.4386,E,2.204792,142.96,141204,,*0F
$GPGGA,105055.563,5920.7004,N,01803.4391,E,1,04,50.0,53.7,M,23.2,M,0.0,0000*7D
$GPRMC,105055.563,A,5920.7004,N,01803.4391,E,2.933874,157.30,141204,,*0D
$GPGGA,105056.563,5920.6995,N,01803.4394,E,1,03,14.2,53.4,M,23.2,M,0.0,0000*7D
$GPRMC,105056.563,A,5920.6995,N,01803.4394,E,2.797724,155.59,141204,,*0C
$GPGGA,105057.563,5920.6987,N,01803.4396,E,1,03,14.2,53.1,M,23.2,M,0.0,0000*78
$GPRMC,105057.563,A,5920.6987,N,01803.4396,E,2.940063,159.06,141204,,*0A
$GPGGA,105058.563,5920.6976,N,01803.4394,E,1,04,4.6,52.8,M,23.2,M,0.0,0000*41
$GPRMC,105058.563,A,5920.6976,N,01803.4394,E,2.900778,154.25,141204,,*0C
$GPGGA,105059.563,5920.6964,N,01803.4395,E,1,04,4.6,53.0,M,23.2,M,0.0,0000*4B
$GPRMC,105059.563,A,5920.6964,N,01803.4395,E,2.965796,150.85,141204,,*02
$GPGGA,105100.562,5920.6952,N,01803.4398,E,1,06,3.0,53.6,M,23.2,M,0.0,0000*4A
$GPRMC,105100.562,A,5920.6952,N,01803.4398,E,3.011163,142.76,141204,,*0E
$GPGGA,105101.562,5920.6944,N,01803.4406,E,1,05,3.1,53.9,M,23.2,M,0.0,0000*41
$GPRMC,105101.562,A,5920.6944,N,01803.4406,E,2.872798,139.75,141204,,*09
$GPGGA,105102.562,5920.6937,N,01803.4415,E,1,04,3.5,53.9,M,23.2,M,0.0,0000*41
$GPRMC,105102.562,A,5920.6937,N,01803.4415,E,2.923798,124.77,141204,,*07
$GPGGA,105103.562,5920.6931,N,01803.4422,E,1,04,6.1,53.5,M,23.2,M,0.0,0000*4F
