$GPRMC,104426.591,A,5920.7019,N,01803.2893,E,0.117980,320.93,141204,,*0F
$GPRMC,104427.591,A,5920.7009,N,01803.2938,E,0.146345,320.93,141204,,*08
$GPRMC,104428.591,A,5920.7008,N,01803.2943,E,0.164145,320.93,141204,,*08
$GPRMC,104429.591,A,5920.7012,N,01803.2931,E,0.150242,320.93,141204,,*04
$GPRMC,104430.591,A,5920.7011,N,01803.2935,E,0.169002,320.93,141204,,*07
$GPRMC,104431.591,A,5920.7011,N,01803.2939,E,0.221061,320.93,141204,,*00
$GPRMC,104432.591,A,5920.7013,N,01803.2940,E,1.558939,320.93,141204,,*03
$GPRMC,104433.591,A,5920.7019,N,01803.2940,E,2.483712,0.03,141204,,*03
$GPRMC,104434.591,A,5920.7026,N,01803.2938,E,2.742301,355.64,141204,,*0D
$GPRMC,104435.591,A,5920.7033,N,01803.2935,E,2.385788,351.58,141204,,*04
$GPRMC,104436.591,A,5920.7038,N,01803.2931,E,1.597616,351.58,141204,,*08
$GPRMC,104437.591,A,5920.7043,N,01803.2926,E,1.999958,345.27,141204,,*09
$GPRMC,104438.590,A,5920.7048,N,01803.2920,E,2.434977,339.78,141204,,*0F
$GPRMC,104439.590,A,5920.7054,N,01803.2914,E,2.476644,340.57,141204,,*0E
$GPRMC,104440.590,A,5920.7060,N,01803.2908,E,1.781627,339.11,141204,,*0B
$GPRMC,104441.590,A,5920.7063,N,01803.2903,E,1.258339,339.11,141204,,*09
$GPRMC,104442.590,A,5920.7068,N,01803.2899,E,1.801152,340.57,141204,,*06
$GPRMC,104443.590,A,5920.7072,N,01803.2895,E,1.973083,334.55,141204,,*08
$GPRMC,104444.590,A,5920.7078,N,01803.2888,E,2.685312,327.23,141204,,*04
$GPRMC,104445.590,A,5920.7085,N,01803.2879,E,2.918799,331.97,141204,,*0D
$GPRMC,104446.590,A,5920.7092,N,01803.2872,E,2.858062,334.14,141204,,*0B
$GPRMC,104447.590,A,5920.7099,N,01803.2867,E,2.894543,333.77,141204,,*01
$GPRMC,104448.590,A,5920.7107,N,01803.2863,E,3.050895,330.49,141204,,*05
$GPRMC,104449.590,A,5920.7114,N,01803.2860,E,3.066903,333.28,141204,,*0A
$GPRMC,104450.590,A,5920.7122,N,01803.2859,E,3.033966,339.48,141204,,*02
$GPRMC,104451.590,A,5920.7129,N,01803.2856,E,3.063032,337.05,141204,,*0D
$GPRMC,104452.589,A,5920.7137,N,01803.2852,E,3.006027,337.28,141204,,*05
$GPRMC,104453.589,A,5920.7145,N,01803.2848,E,3.174329,339.97,141204,,*09
$GPRMC,104454.589,A,5920.7152,N,01803.2844,E,2.992917,331.00,141204,,*04
$GPRMC,104455.589,A,5920.7159,N,01803.2837,E,2.585596,329.28,141204,,*06
$GPRMC,104456.589,A,5920.7165,N,01803.2829,E,2.983147,334.47,141204,,*02
$GPRMC,104457.589,A,5920.7173,N,01803.2822,E,2.936807,338.52,141204,,*04
$GPRMC,104458.589,A,5920.7181,N,01803.2815,E,2.779498,335.66,141204,,*07
$GPRMC,104459.589,A,5920.7188,N,01803.2806,E,2.781641,333.94,141204,,*07
$GPRMC,104500.589,A,5920.7196,N,01803.2793,E,2.520663,336.56,141204,,*04
$GPRMC,104501.589,A,5920.7206,N,01803.2769,E,2.138972,333.88,141204,,*0E
$GPRMC,104502.589,A,5920.7216,N,01803.2738,E,1.766260,317.20,141204,,*0A
$GPRMC,104503.589,A,5920.7225,N,01803.2708,E,0.995080,317.20,141204,,*07
$GPRMC,104504.589,A,5920.7231,N,01803.2680,E,0.538185,317.20,141204,,*0B
$GPRMC,104505.588,A,5920.7236,N,01803.2658,E,0.105784,317.20,141204,,*04
$GPRMC,104506.588,A,5920.7240,N,01803.2640,E,0.150785,317.20,141204,,*0E
$GPRMC,104507.588,A,5920.7244,N,01803.2621,E,1.179182,317.20,141204,,*07
$GPRMC,104508.588,A,5920.7251,N,01803.2600,E,2.347273,318.34,141204,,*04
$GPRMC,104509.588,A,5920.7259,N,01803.2578,E,3.041934,328.05,141204,,*0C
$GPRMC,104510.588,A,5920.7269,N,01803.2559,E,3.352736,349.62,141204,,*0F
$GPRMC,104511.588,A,5920.7281,N,01803.2545,E,3.532892,357.82,141204,,*05
$GPRMC,104512.588,A,5920.7293,N,01803.2532,E,3.687739,349.73,141204,,*07
$GPRMC,104513.588,A,5920.7304,N,01803.2518,E,3.566776,340.10,141204,,*0A
$GPRMC,104514.588,A,5920.7315,N,01803.2501,E,3.531781,336.51,141204,,*0B
$GPRMC,104515.588,A,5920.7326,N,01803.2484,E,3.425868,337.56,141204,,*0C
$GPRMC,104516.588,A,5920.7336,N,01803.2469,E,3.551740,337.53,141204,,*0F
$GPRMC,104517.588,A,5920.7347,N,01803.2454,E,3.555826,332.67,141204,,*0F
$GPRMC,104518.588,A,5920.7357,N,01803.2440,E,3.429744,332.65,141204,,*07
$GPRMC,104519.587,A,5920.7367,N,01803.2425,E,3.568192,332.95,141204,,*0F
$GPRMC,104520.587,A,5920.7377,N,01803.2410,E,3.431482,334.73,141204,,*05
$GPRMC,104521.587,A,5920.7386,N,01803.2398,E,3.448326,337.50,141204,,*08
$GPRMC,104522.587,A,5920.7396,N,01803.2385,E,3.431066,335.99,141204,,*08
$GPRMC,104523.587,A,5920.7406,N,01803.2373,E,3.663433,334.78,141204,,*01
$GPRMC,104524.587,A,5920.7416,N,01803.2360,E,3.566919,337.65,141204,,*09
$GPRMC,104525.587,A,5920.7426,N,01803.2351,E,3.561051,338.77,141204,,*07
$GPRMC,104526.587,A,5920.7436,N,01803.2341,E,3.571422,335.31,141204,,*0A
$GPRMC,104527.587,A,5920.7446,N,01803.2331,E,3.639882,332.72,141204,,*02
$GPRMC,104528.587,A,5920.7455,N,01803.2320,E,3.582879,332.67,141204,,*0C
$GPRMC,104529.587,A,5920.7464,N,01803.2309,E,3.460223,335.71,141204,,*0C
$GPRMC,104530.587,A,5920.7474,N,01803.2300,E,3.486833,335.95,141204,,*05
$GPRMC,104531.587,A,5920.7483,N,01803.2291,E,3.335638,333.85,141204,,*08
$GPRMC,104532.587,A,5920.7492,N,01803.2282,E,3.465013,331.96,141204,,*04
$GPRMC,104533.586,A,5920.7500,N,01803.2273,E,3.357969,327.28,141204,,*00
$GPRMC,104534.586,A,5920.7508,N,01803.2263,E,3.407072,330.14,141204,,*06
$GPRMC,104535.586,A,5920.7516,N,01803.2254,E,3.287362,333.05,141204,,*03
$GPRMC,104536.586,A,5920.7524,N,01803.2245,E,3.208078,330.17,141204,,*0E
$GPRMC,104537.586,A,5920.7532,N,01803.2236,E,3.358200,326.76,141204,,*05
$GPRMC,104538.586,A,5920.7540,N,01803.2226,E,3.378583,332.49,141204,,*09
$GPRMC,104539.586,A,5920.7548,N,01803.2218,E,3.390726,330.02,141204,,*0B
$GPRMC,104540.586,A,5920.7556,N,01803.2209,E,3.363453,331.07,141204,,*03
$GPRMC,104541.586,A,5920.7564,N,01803.2200,E,3.459575,329.50,141204,,*0A
$GPRMC,104542.586,A,5920.7572,N,01803.2191,E,3.401464,330.98,141204,,*05
$GPRMC,104543.586,A,5920.7580,N,01803.2183,E,3.269408,330.09,141204,,*00
$GPRMC,104544.586,A,5920.7587,N,01803.2175,E,3.483868,334.61,141204,,*0B
$GPRMC,104545.586,A,5920.7595,N,01803.2168,E,3.122845,344.70,141204,,*03
$GPRMC,104546.586,A,5920.7603,N,01803.2162,E,3.106214,339.89,141204,,*02
$GPRMC,104547.585,A,5920.7611,N,01803.2155,E,3.314744,333.50,141204,,*08
$GPRMC,104548.585,A,5920.7619,N,01803.2146,E,3.493535,335.59,141204,,*0E
$GPRMC,104549.585,A,5920.7627,N,01803.2136,E,3.491091,334.82,141204,,*0B
$GPRMC,104550.585,A,5920.7635,N,01803.2127,E,3.402906,334.66,141204,,*07
$GPRMC,104551.585,A,5920.7643,N,01803.2119,E,3.422047,337.94,141204,,*0A
$GPRMC,104552.585,A,5920.7652,N,01803.2113,E,3.282163,345.05,141204,,*05
$GPRMC,104553.585,A,5920.7661,N,01803.2108,E,3.486218,345.53,141204,,*00
$GPRMC,104554.585,A,5920.7670,N,01803.2104,E,3.502541,344.00,141204,,*0A
$GPRMC,104555.585,A,5920.7680,N,01803.2099,E,3.456381,341.59,141204,,*02
$GPRMC,104556.585,A,5920.7689,N,01803.2093,E,3.488534,335.78,141204,,*09
$GPRMC,104557.585,A,5920.7699,N,01803.2087,E,3.425006,333.48,141204,,*0A
$GPRMC,104558.585,A,5920.7709,N,01803.2079,E,3.471954,324.35,141204,,*0F
$GPRMC,104559.585,A,5920.7719,N,01803.2072,E,3.382092,332.31,141204,,*0F
$GPRMC,104600.585,A,5920.7729,N,01803.2065,E,3.472417,331.69,141204,,*0A
$GPRMC,104601.584,A,5920.7738,N,01803.2058,E,3.441082,334.13,141204,,*04
$GPRMC,104602.584,A,5920.7747,N,01803.2050,E,3.469100,333.77,141204,,*03
$GPRMC,104603.584,A,5920.7755,N,01803.2042,E,3.445396,334.01,141204,,*07
$GPRMC,104604.584,A,5920.7764,N,01803.2035,E,3.435355,336.78,141204,,*06
$GPRMC,104605.584,A,5920.7771,N,01803.2027,E,3.369293,335.11,141204,,*09
$GPRMC,104606.584,A,5920.7779,N,01803.2019,E,3.413218,337.15,141204,,*00
$GPRMC,104607.584,A,5920.7787,N,01803.2010,E,3.530685,329.03,141204,,*01
$GPRMC,104608.584,A,5920.7794,N,01803.1999,E,3.552031,322.37,141204,,*06
$GPRMC,104609.584,A,5920.7801,N,01803.1986,E,3.456481,322.70,141204,,*03
$GPRMC,104610.584,A,5920.7808,N,01803.1974,E,3.598357,324.06,141204,,*07
$GPRMC,104611.584,A,5920.7815,N,01803.1962,E,3.304643,329.43,141204,,*02
$GPRMC,104612.584,A,5920.7823,N,01803.1951,E,3.643515,332.50,141204,,*0A
$GPRMC,104613.584,A,5920.7831,N,01803.1939,E,3.724668,335.00,141204,,*0D
$GPRMC,104614.583,A,5920.7840,N,01803.1928,E,3.474361,340.39,141204,,*09
$GPRMC,104615.583,A,5920.7848,N,01803.1918,E,3.434800,337.32,141204,,*00
$GPRMC,104616.583,A,5920.7855,N,01803.1907,E,3.240165,332.88,141204,,*0A
$GPRMC,104617.583,A,5920.7862,N,01803.1897,E,3.209688,336.37,141204,,*0E
$GPRMC,104618.583,A,5920.7869,N,01803.1887,E,3.211035,340.43,141204,,*00
$GPRMC,104619.583,A,5920.7876,N,01803.1880,E,3.192311,348.22,141204,,*0A
$GPRMC,104620.583,A,5920.7883,N,01803.1875,E,2.775666,357.51,141204,,*01
$GPRMC,104621.583,A,5920.7888,N,01803.1872,E,2.047414,356.64,141204,,*0A
$GPRMC,104622.583,A,5920.7892,N,01803.1873,E,2.251847,32.14,141204,,*3A
$GPRMC,104623.583,A,5920.7895,N,01803.1880,E,2.776156,47.49,141204,,*33
$GPRMC,104624.583,A,5920.7898,N,01803.1892,E,3.176802,59.66,141204,,*37
$GPRMC,104625.583,A,5920.7900,N,01803.1906,E,3.159898,64.76,141204,,*3B
$GPRMC,104626.583,A,5920.7902,N,01803.1920,E,3.340934,61.21,141204,,*34
$GPRMC,104627.583,A,5920.7905,N,01803.1935,E,3.334158,59.68,141204,,*31
$GPRMC,104628.582,A,5920.7907,N,01803.1949,E,3.243699,56.32,141204,,*3D
$GPRMC,104629.582,A,5920.7911,N,01803.1962,E,2.806002,51.55,141204,,*3A
$GPRMC,104630.582,A,5920.7914,N,01803.1974,E,3.205773,57.80,141204,,*37
$GPRMC,104631.582,A,5920.7917,N,01803.1988,E,3.433295,57.52,141204,,*37
$GPRMC,104632.582,A,5920.7921,N,01803.2002,E,3.333683,56.95,141204,,*37
$GPRMC,104633.582,A,5920.7925,N,01803.2016,E,3.513867,57.65,141204,,*39
$GPRMC,104634.582,A,5920.7928,N,01803.2031,E,3.396633,74.76,141204,,*31
$GPRMC,104635.582,A,5920.7928,N,01803.2049,E,3.582971,87.21,141204,,*3B
$GPRMC,104636.582,A,5920.7928,N,01803.2066,E,3.294186,81.61,141204,,*37
$GPRMC,104637.582,A,5920.7929,N,01803.2082,E,3.121771,75.26,141204,,*36
$GPRMC,104638.582,A,5920.7931,N,01803.2098,E,3.262798,79.49,141204,,*3D
$GPRMC,104639.582,A,5920.7933,N,01803.2114,E,3.314980,61.55,141204,,*38
$GPRMC,104640.582,A,5920.7937,N,01803.2129,E,3.009560,70.58,141204,,*3C
$GPRMC,104641.582,A,5920.7941,N,01803.2143,E,3.133305,65.47,141204,,*37
$GPRMC,104642.581,A,5920.7946,N,01803.2158,E,3.138018,70.91,141204,,*31
$GPRMC,104643.581,A,5920.7950,N,01803.2174,E,3.189347,69.26,141204,,*3E
$GPRMC,104644.581,A,5920.7953,N,01803.2190,E,3.134232,69.87,141204,,*3E
$GPRMC,104645.581,A,5920.7959,N,01803.2206,E,3.151504,63.46,141204,,*3F
$GPRMC,104646.581,A,5920.7964,N,01803.2221,E,3.168141,61.83,141204,,*33
$GPRMC,104647.581,A,5920.7968,N,01803.2237,E,3.125339,66.79,141204,,*3F
$GPRMC,104648.581,A,5920.7972,N,01803.2250,E,2.470944,61.71,141204,,*31
$GPRMC,104649.581,A,5920.7975,N,01803.2261,E,1.915359,64.76,141204,,*3C
$GPRMC,104650.581,A,5920.7980,N,01803.2269,E,2.306496,27.35,141204,,*39
$GPRMC,104651.581,A,5920.7985,N,01803.2279,E,2.307838,59.14,141204,,*3F
$GPRMC,104652.581,A,5920.7988,N,01803.2291,E,2.470948,60.14,141204,,*3C
$GPRMC,104653.581,A,5920.7991,N,01803.2304,E,1.899090,95.14,141204,,*36
$GPRMC,104654.581,A,5920.7992,N,01803.2312,E,1.037874,95.14,141204,,*3B
$GPRMC,104655.581,A,5920.7993,N,01803.2316,E,0.432904,95.14,141204,,*39
$GPRMC,104656.580,A,5920.7993,N,01803.2318,E,0.501776,95.14,141204,,*3F
$GPRMC,104657.580,A,5920.7991,N,01803.2318,E,0.493565,95.14,141204,,*36
$GPRMC,104658.580,A,5920.7991,N,01803.2319,E,0.392667,95.14,141204,,*3F
$GPRMC,104659.580,A,5920.7995,N,01803.2324,E,1.434558,95.14,141204,,*31
$GPRMC,104700.580,A,5920.7991,N,01803.2323,E,1.843862,78.44,141204,,*31
$GPRMC,104701.580,A,5920.7987,N,01803.2325,E,2.016564,67.74,141204,,*3C
$GPRMC,104702.580,A,5920.7988,N,01803.2327,E,2.262944,67.12,141204,,*3D
$GPRMC,104703.580,A,5920.7992,N,01803.2331,E,2.512741,67.00,141204,,*38
$GPRMC,104704.580,A,5920.7997,N,01803.2340,E,2.762931,58.73,141204,,*38
$GPRMC,104705.580,A,5920.8001,N,01803.2352,E,2.876679,57.46,141204,,*33
$GPRMC,104706.580,A,5920.8004,N,01803.2365,E,2.792510,65.63,141204,,*3E
$GPRMC,104707.580,A,5920.8007,N,01803.2378,E,2.776296,64.52,141204,,*30
$GPRMC,104708.580,A,5920.8011,N,01803.2391,E,2.829394,56.12,141204,,*3C
$GPRMC,104709.579,A,5920.8014,N,01803.2405,E,2.952672,61.50,141204,,*36
$GPRMC,104710.579,A,5920.8017,N,01803.2421,E,2.984645,62.59,141204,,*3E
$GPRMC,104711.579,A,5920.8019,N,01803.2437,E,3.024540,64.93,141204,,*32
$GPRMC,104712.579,A,5920.8022,N,01803.2453,E,2.950697,57.90,141204,,*3A
$GPRMC,104713.579,A,5920.8026,N,01803.2470,E,2.723891,65.65,141204,,*37
$GPRMC,104714.579,A,5920.8029,N,01803.2490,E,2.764860,72.89,141204,,*38
$GPRMC,104715.579,A,5920.8032,N,01803.2511,E,2.884688,67.70,141204,,*30
$GPRMC,104716.579,A,5920.8036,N,01803.2531,E,2.925612,66.98,141204,,*3B
$GPRMC,104717.579,A,5920.8041,N,01803.2550,E,2.918474,60.30,141204,,*35
$GPRMC,104718.579,A,5920.8046,N,01803.2567,E,2.845356,67.48,141204,,*3F
$GPRMC,104719.579,A,5920.8050,N,01803.2584,E,2.865883,66.89,141204,,*39
$GPRMC,104720.579,A,5920.8054,N,01803.2599,E,3.022560,65.21,141204,,*30
$GPRMC,104721.579,A,5920.8058,N,01803.2612,E,2.964227,58.92,141204,,*35
$GPRMC,104722.579,A,5920.8062,N,01803.2623,E,2.330197,60.06,141204,,*38
$GPRMC,104723.578,A,5920.8064,N,01803.2628,E,1.340581,60.06,141204,,*32
$GPRMC,104724.578,A,5920.8066,N,01803.2630,E,0.452064,60.06,141204,,*35
$GPRMC,104725.578,A,5920.8066,N,01803.2629,E,0.140332,60.06,141204,,*3A
$GPRMC,104726.578,A,5920.8067,N,01803.2624,E,0.180849,60.06,141204,,*3E
$GPRMC,104727.578,A,5920.8068,N,01803.2617,E,0.132062,60.06,141204,,*38
$GPRMC,104728.578,A,5920.8070,N,01803.2608,E,0.101795,60.06,141204,,*3F
$GPRMC,104729.578,A,5920.8071,N,01803.2598,E,0.099922,60.06,141204,,*37
$GPRMC,104730.578,A,5920.8074,N,01803.2585,E,0.158770,60.06,141204,,*33
$GPRMC,104731.578,A,5920.8079,N,01803.2571,E,0.122361,60.06,141204,,*3D
$GPRMC,104732.578,A,5920.8083,N,01803.2556,E,0.146267,60.06,141204,,*3B
$GPRMC,104733.578,A,5920.8088,N,01803.2543,E,0.087351,60.06,141204,,*3D
$GPRMC,104734.578,A,5920.8092,N,01803.2530,E,0.131498,60.06,141204,,*3B
$GPRMC,104735.578,A,5920.8096,N,01803.2522,E,0.124489,60.06,141204,,*39
$GPRMC,104736.578,A,5920.8098,N,01803.2519,E,0.241657,60.06,141204,,*3D
$GPRMC,104737.577,A,5920.8100,N,01803.2520,E,0.536732,60.06,141204,,*3C
$GPRMC,104738.577,A,5920.8102,N,01803.2526,E,1.623735,64.69,141204,,*3B
$GPRMC,104739.577,A,5920.8104,N,01803.2538,E,2.123324,68.79,141204,,*3E
$GPRMC,104740.577,A,5920.8107,N,01803.2553,E,2.689505,66.17,141204,,*3A
$GPRMC,104741.577,A,5920.8110,N,01803.2570,E,2.975767,61.39,141204,,*3D
$GPRMC,104742.577,A,5920.8113,N,01803.2588,E,3.174172,62.04,141204,,*3D
$GPRMC,104743.577,A,5920.8116,N,01803.2607,E,3.138321,64.83,141204,,*38
$GPRMC,104744.577,A,5920.8118,N,01803.2627,E,3.273562,63.42,141204,,*34
$GPRMC,104745.577,A,5920.8121,N,01803.2647,E,3.188894,60.64,141204,,*3D
$GPRMC,104746.577,A,5920.8125,N,01803.2664,E,3.255752,58.12,141204,,*37
$GPRMC,104747.577,A,5920.8130,N,01803.2680,E,3.214576,59.27,141204,,*3E
$GPRMC,104748.577,A,5920.8133,N,01803.2696,E,3.196903,62.91,141204,,*37
$GPRMC,104749.577,A,5920.8137,N,01803.2712,E,3.236526,64.14,141204,,*36
$GPRMC,104750.576,A,5920.8140,N,01803.2728,E,3.238824,65.18,141204,,*3A
$GPRMC,104751.576,A,5920.8143,N,01803.2746,E,3.212587,65.01,141204,,*34
$GPRMC,104752.576,A,5920.8147,N,01803.2762,E,3.243749,64.76,141204,,*30
$GPRMC,104753.576,A,5920.8151,N,01803.2777,E,3.262342,65.03,141204,,*3D
$GPRMC,104754.576,A,5920.8155,N,01803.2791,E,3.263313,63.15,141204,,*32
$GPRMC,104755.576,A,5920.8159,N,01803.2807,E,3.236732,67.05,141204,,*3D
$GPRMC,104756.576,A,5920.8162,N,01803.2823,E,3.063892,65.72,141204,,*35
$GPRMC,104757.576,A,5920.8164,N,01803.2840,E,3.226838,76.38,141204,,*38
$GPRMC,104758.576,A,5920.8165,N,01803.2858,E,3.393122,76.21,141204,,*3A
$GPRMC,104759.576,A,5920.8167,N,01803.2876,E,3.306559,65.71,141204,,*36
$GPRMC,104800.576,A,5920.8170,N,01803.2892,E,3.171941,57.45,141204,,*38
$GPRMC,104801.576,A,5920.8173,N,01803.2906,E,3.159097,59.15,141204,,*35
$GPRMC,104802.576,A,5920.8177,N,01803.2920,E,3.104864,53.37,141204,,*30
$GPRMC,104803.576,A,5920.8181,N,01803.2934,E,3.090559,58.61,141204,,*3A
$GPRMC,104804.575,A,5920.8184,N,01803.2950,E,3.300731,63.34,141204,,*37
$GPRMC,104805.575,A,5920.8187,N,01803.2967,E,3.165378,61.69,141204,,*33
$GPRMC,104806.575,A,5920.8191,N,01803.2983,E,3.218867,64.48,141204,,*37
$GPRMC,104807.575,A,5920.8194,N,01803.3001,E,3.190981,68.25,141204,,*3C
$GPRMC,104808.575,A,5920.8197,N,01803.3020,E,3.192655,62.85,141204,,*37
$GPRMC,104809.575,A,5920.8199,N,01803.3039,E,3.259520,62.22,141204,,*38
$GPRMC,104810.575,A,5920.8202,N,01803.3057,E,3.158374,59.03,141204,,*37
$GPRMC,104811.575,A,5920.8205,N,01803.3075,E,3.074138,62.95,141204,,*33
$GPRMC,104812.575,A,5920.8206,N,01803.3094,E,3.278498,66.94,141204,,*38
$GPRMC,104813.575,A,5920.8208,N,01803.3113,E,3.288664,59.71,141204,,*30
$GPRMC,104814.575,A,5920.8210,N,01803.3131,E,3.088143,67.88,141204,,*35
$GPRMC,104815.575,A,5920.8209,N,01803.3148,E,2.958540,91.55,141204,,*39
$GPRMC,104816.575,A,5920.8205,N,01803.3166,E,3.150940,110.20,141204,,*0D
$GPRMC,104817.575,A,5920.8198,N,01803.3182,E,3.169085,131.66,141204,,*0A
$GPRMC,104818.574,A,5920.8189,N,01803.3197,E,3.351271,132.43,141204,,*04
$GPRMC,104819.574,A,5920.8180,N,01803.3212,E,3.250545,129.94,141204,,*02
$GPRMC,104820.574,A,5920.8171,N,01803.3226,E,3.231365,132.66,141204,,*05
$GPRMC,104821.574,A,5920.8161,N,01803.3238,E,3.095666,156.86,141204,,*0C
$GPRMC,104822.574,A,5920.8151,N,01803.3247,E,3.331505,148.96,141204,,*01
$GPRMC,104823.574,A,5920.8142,N,01803.3257,E,3.274612,146.98,141204,,*06
$GPRMC,104824.574,A,5920.8133,N,01803.3268,E,3.518586,138.57,141204,,*02
$GPRMC,104825.574,A,5920.8127,N,01803.3284,E,3.054490,114.15,141204,,*07
$GPRMC,104826.574,A,5920.8124,N,01803.3301,E,3.160683,105.88,141204,,*09
$GPRMC,104827.574,A,5920.8121,N,01803.3319,E,3.437285,103.79,141204,,*09
$GPRMC,104828.574,A,5920.8118,N,01803.3337,E,3.221016,105.00,141204,,*01
$GPRMC,104829.574,A,5920.8114,N,01803.3352,E,3.188762,108.60,141204,,*00
$GPRMC,104830.574,A,5920.8108,N,01803.3364,E,3.025214,145.17,141204,,*0B
$GPRMC,104831.573,A,5920.8095,N,01803.3370,E,4.942876,161.53,141204,,*0A
$GPRMC,104832.573,A,5920.8084,N,01803.3378,E,3.291546,138.66,141204,,*07
$GPRMC,104833.573,A,5920.8074,N,01803.3386,E,3.697292,155.84,141204,,*03
$GPRMC,104834.573,A,5920.8061,N,01803.3390,E,3.769182,154.23,141204,,*09
$GPRMC,104835.573,A,5920.8047,N,01803.3397,E,3.934621,148.01,141204,,*0E
$GPRMC,104836.573,A,5920.8033,N,01803.3403,E,3.969476,154.75,141204,,*02
$GPRMC,104837.573,A,5920.8018,N,01803.3409,E,3.929414,151.49,141204,,*0A
$GPRMC,104838.573,A,5920.8004,N,01803.3415,E,3.942787,151.42,141204,,*0A
$GPRMC,104839.573,A,5920.7989,N,01803.3420,E,4.086626,154.80,141204,,*09
$GPRMC,104840.573,A,5920.7974,N,01803.3426,E,4.155342,152.11,141204,,*05
$GPRMC,104841.573,A,5920.7961,N,01803.3431,E,3.312204,152.98,141204,,*02
$GPRMC,104842.573,A,5920.7949,N,01803.3436,E,3.974336,152.55,141204,,*07
$GPRMC,104843.573,A,5920.7935,N,01803.3440,E,4.210735,153.97,141204,,*0A
$GPRMC,104844.573,A,5920.7922,N,01803.3448,E,4.222648,156.94,141204,,*0F
$GPRMC,104845.572,A,5920.7909,N,01803.3456,E,4.141055,150.85,141204,,*03
$GPRMC,104846.572,A,5920.7897,N,01803.3465,E,4.238457,153.73,141204,,*07
$GPRMC,104847.572,A,5920.7884,N,01803.3473,E,4.284163,154.70,141204,,*02
$GPRMC,104848.572,A,5920.7871,N,01803.3480,E,4.347314,160.40,141204,,*03
$GPRMC,104849.572,A,5920.7854,N,01803.3487,E,4.794135,160.02,141204,,*0F
$GPRMC,104850.572,A,5920.7840,N,01803.3498,E,4.385409,157.88,141204,,*04
$GPRMC,104851.572,A,5920.7827,N,01803.3509,E,4.152913,158.58,141204,,*01
$GPRMC,104852.572,A,5920.7815,N,01803.3517,E,4.248010,167.07,141204,,*08
$GPRMC,104853.572,A,5920.7803,N,01803.3526,E,3.913689,151.91,141204,,*02
$GPRMC,104854.572,A,5920.7793,N,01803.3536,E,3.796853,157.80,141204,,*0E
$GPRMC,104855.572,A,5920.7782,N,01803.3544,E,3.858494,160.13,141204,,*0E
$GPRMC,104856.572,A,5920.7771,N,01803.3553,E,3.591052,159.91,141204,,*01
$GPRMC,104857.572,A,5920.7761,N,01803.3567,E,3.226104,153.26,141204,,*09
$GPRMC,104858.571,A,5920.7751,N,01803.3581,E,3.850954,160.27,141204,,*09
$GPRMC,104859.571,A,5920.7738,N,01803.3588,E,3.911350,161.16,141204,,*07
$GPRMC,104900.571,A,5920.7727,N,01803.3596,E,3.686983,159.56,141204,,*01
$GPRMC,104901.571,A,5920.7716,N,01803.3606,E,3.865173,156.70,141204,,*07
$GPRMC,104902.571,A,5920.7706,N,01803.3617,E,3.654876,156.21,141204,,*01
$GPRMC,104903.571,A,5920.7694,N,01803.3630,E,3.604303,157.26,141204,,*05
$GPRMC,104904.571,A,5920.7685,N,01803.3637,E,3.496557,157.76,141204,,*0E
$GPRMC,104905.571,A,5920.7677,N,01803.3653,E,3.435099,158.29,141204,,*0B
$GPRMC,104906.571,A,5920.7667,N,01803.3663,E,3.512672,155.62,141204,,*0F
$GPRMC,104907.571,A,5920.7656,N,01803.3669,E,3.555368,159.67,141204,,*02
$GPRMC,104908.571,A,5920.7646,N,01803.3676,E,2.977277,145.82,141204,,*06
$GPRMC,104909.571,A,5920.7636,N,01803.3677,E,3.163364,195.67,141204,,*08
$GPRMC,104910.571,A,5920.7625,N,01803.3677,E,3.836801,162.53,141204,,*0C
$GPRMC,104911.571,A,5920.7615,N,01803.3686,E,3.611035,155.54,141204,,*07
$GPRMC,104912.570,A,5920.7605,N,01803.3694,E,3.598947,159.25,141204,,*03
$GPRMC,104913.570,A,5920.7595,N,01803.3705,E,3.930759,160.02,141204,,*01
$GPRMC,104914.570,A,5920.7587,N,01803.3714,E,3.530641,155.24,141204,,*03
$GPRMC,104915.570,A,5920.7577,N,01803.3718,E,3.424634,154.49,141204,,*0D
$GPRMC,104916.570,A,5920.7569,N,01803.3726,E,3.308846,153.30,141204,,*07
$GPRMC,104917.570,A,5920.7562,N,01803.3737,E,3.177941,151.82,141204,,*0A
$GPRMC,104918.570,A,5920.7553,N,01803.3744,E,3.253703,155.84,141204,,*0C
$GPRMC,104919.570,A,5920.7549,N,01803.3755,E,2.992130,152.44,141204,,*0C
$GPRMC,104920.570,A,5920.7542,N,01803.3766,E,2.825868,150.53,141204,,*00
$GPRMC,104921.570,A,5920.7536,N,01803.3779,E,2.273413,148.72,141204,,*0F
$GPRMC,104922.570,A,5920.7532,N,01803.3795,E,2.410761,149.69,141204,,*04
$GPRMC,104923.570,A,5920.7527,N,01803.3811,E,2.624597,168.24,141204,,*06
$GPRMC,104924.570,A,5920.7521,N,01803.3827,E,2.687140,154.22,141204,,*0C
$GPRMC,104925.570,A,5920.7514,N,01803.3844,E,3.068209,154.14,141204,,*03
$GPRMC,104926.569,A,5920.7508,N,01803.3861,E,2.984986,154.01,141204,,*00
$GPRMC,104927.569,A,5920.7503,N,01803.3877,E,2.950500,152.07,141204,,*06
$GPRMC,104928.569,A,5920.7497,N,01803.3893,E,2.960670,152.01,141204,,*0E
$GPRMC,104929.569,A,5920.7490,N,01803.3906,E,3.047047,153.40,141204,,*0E
$GPRMC,104930.569,A,5920.7485,N,01803.3920,E,3.150177,150.66,141204,,*04
$GPRMC,104931.569,A,5920.7478,N,01803.3929,E,3.045451,152.63,141204,,*0D
$GPRMC,104932.569,A,5920.7471,N,01803.3937,E,3.145561,146.85,141204,,*06
$GPRMC,104933.569,A,5920.7463,N,01803.3945,E,3.339828,149.52,141204,,*0D
$GPRMC,104934.569,A,5920.7454,N,01803.3951,E,3.241234,154.99,141204,,*09
$GPRMC,104935.569,A,5920.7446,N,01803.3953,E,3.180801,152.99,141204,,*0D
$GPRMC,104936.569,A,5920.7436,N,01803.3956,E,3.389557,159.56,141204,,*01
$GPRMC,104937.569,A,5920.7427,N,01803.3960,E,3.379742,155.37,141204,,*07
$GPRMC,104938.569,A,5920.7416,N,01803.3963,E,3.394189,150.29,141204,,*01
$GPRMC,104939.568,A,5920.7406,N,01803.3967,E,3.447660,159.89,141204,,*0E
$GPRMC,104940.568,A,5920.7398,N,01803.3971,E,3.294726,151.44,141204,,*05
$GPRMC,104941.568,A,5920.7389,N,01803.3975,E,3.323116,157.93,141204,,*04
$GPRMC,104942.568,A,5920.7379,N,01803.3978,E,3.502897,165.20,141204,,*09
$GPRMC,104943.568,A,5920.7368,N,01803.3981,E,3.454975,160.22,141204,,*06
$GPRMC,104944.568,A,5920.7361,N,01803.3989,E,3.340370,142.79,141204,,*03
$GPRMC,104945.568,A,5920.7351,N,01803.3997,E,3.764375,163.42,141204,,*02
$GPRMC,104946.568,A,5920.7341,N,01803.4002,E,3.159360,158.52,141204,,*07
$GPRMC,104947.568,A,5920.7330,N,01803.4006,E,3.215292,159.53,141204,,*03
$GPRMC,104948.568,A,5920.7322,N,01803.4012,E,3.305152,159.39,141204,,*09
$GPRMC,104949.568,A,5920.7313,N,01803.4018,E,3.281907,157.10,141204,,*00
$GPRMC,104950.568,A,5920.7305,N,01803.4026,E,3.155557,153.52,141204,,*03
$GPRMC,104951.568,A,5920.7300,N,01803.4043,E,2.967541,148.18,141204,,*0F
$GPRMC,104952.568,A,5920.7291,N,01803.4051,E,3.277498,156.41,141204,,*0B
$GPRMC,104953.567,A,5920.7282,N,01803.4061,E,3.355098,149.68,141204,,*04
$GPRMC,104954.567,A,5920.7267,N,01803.4072,E,3.433482,153.72,141204,,*02
$GPRMC,104955.567,A,5920.7258,N,01803.4080,E,3.524601,154.82,141204,,*04
$GPRMC,104956.567,A,5920.7246,N,01803.4088,E,3.728352,162.36,141204,,*07
$GPRMC,104957.567,A,5920.7234,N,01803.4092,E,3.680439,159.15,141204,,*08
$GPRMC,104958.567,A,5920.7222,N,01803.4095,E,3.745279,158.29,141204,,*03
$GPRMC,104959.567,A,5920.7210,N,01803.4100,E,3.877075,158.93,141204,,*0F
$GPRMC,105000.567,A,5920.7199,N,01803.4105,E,3.737781,159.69,141204,,*0F
$GPRMC,105001.567,A,5920.7187,N,01803.4109,E,3.915129,160.06,141204,,*04
$GPRMC,105002.567,A,5920.7177,N,01803.4115,E,3.165315,146.84,141204,,*09
$GPRMC,105003.567,A,5920.7169,N,01803.4121,E,3.552250,160.36,141204,,*0D
$GPRMC,105004.567,A,5920.7161,N,01803.4127,E,3.612539,156.09,141204,,*02
$GPRMC,105005.567,A,5920.7152,N,01803.4134,E,3.527726,149.63,141204,,*0A
$GPRMC,105006.566,A,5920.7145,N,01803.4143,E,3.342449,145.82,141204,,*02
$GPRMC,105007.566,A,5920.7137,N,01803.4149,E,3.329374,148.48,141204,,*03
$GPRMC,105008.566,A,5920.7128,N,01803.4154,E,3.447513,158.02,141204,,*09
$GPRMC,105009.566,A,5920.7119,N,01803.4156,E,4.025548,177.52,141204,,*09
$GPRMC,105010.566,A,5920.7104,N,01803.4147,E,4.636506,186.81,141204,,*03
$GPRMC,105011.566,A,5920.7097,N,01803.4147,E,3.202289,156.96,141204,,*06
$GPRMC,105012.566,A,5920.7091,N,01803.4152,E,3.307114,164.53,141204,,*0C
$GPRMC,105013.566,A,5920.7083,N,01803.4154,E,3.324775,167.78,141204,,*02
$GPRMC,105014.566,A,5920.7076,N,01803.4155,E,3.420256,168.98,141204,,*08
$GPRMC,105015.566,A,5920.7067,N,01803.4155,E,3.942464,169.45,141204,,*06
$GPRMC,105016.566,A,5920.7071,N,01803.4163,E,3.030061,149.26,141204,,*0D
$GPRMC,105017.566,A,5920.7066,N,01803.4172,E,3.177013,148.44,141204,,*08
$GPRMC,105018.566,A,5920.7070,N,01803.4180,E,3.272460,146.32,141204,,*04
$GPRMC,105019.566,A,5920.7066,N,01803.4187,E,3.277000,149.07,141204,,*0B
$GPRMC,105020.565,A,5920.7058,N,01803.4196,E,3.102116,148.67,141204,,*0F
$GPRMC,105021.565,A,5920.7054,N,01803.4202,E,3.091917,151.48,141204,,*0B
$GPRMC,105022.565,A,5920.7050,N,01803.4211,E,3.064664,149.75,141204,,*08
$GPRMC,105023.565,A,5920.7043,N,01803.4220,E,3.132724,147.29,141204,,*09
$GPRMC,105024.565,A,5920.7036,N,01803.4229,E,3.032396,149.07,141204,,*0B
$GPRMC,105025.565,A,5920.7029,N,01803.4237,E,3.027694,151.84,141204,,*0A
$GPRMC,105026.565,A,5920.7021,N,01803.4245,E,3.174134,151.57,141204,,*00
$GPRMC,105027.565,A,5920.7016,N,01803.4250,E,3.061314,144.09,141204,,*0B
$GPRMC,105028.565,A,5920.7012,N,01803.4262,E,2.848756,145.05,141204,,*0C
$GPRMC,105029.565,A,5920.7007,N,01803.4275,E,3.478256,151.19,141204,,*0C
$GPRMC,105030.565,A,5920.7001,N,01803.4287,E,3.231335,146.02,141204,,*0C
$GPRMC,105031.565,A,5920.7005,N,01803.4300,E,3.052230,146.30,141204,,*05
$GPRMC,105032.565,A,5920.7015,N,01803.4315,E,2.987485,143.90,141204,,*04
$GPRMC,105033.564,A,5920.7026,N,01803.4328,E,3.097796,147.45,141204,,*0E
$GPRMC,105034.564,A,5920.7034,N,01803.4340,E,3.076364,150.25,141204,,*02
$GPRMC,105035.564,A,5920.7049,N,01803.4351,E,2.544728,128.22,141204,,*08
$GPRMC,105036.564,A,5920.7060,N,01803.4361,E,2.474214,146.38,141204,,*08
$GPRMC,105037.564,A,5920.7070,N,01803.4362,E,2.255090,183.60,141204,,*04
$GPRMC,105038.564,A,5920.7079,N,01803.4361,E,2.273370,158.11,141204,,*08
$GPRMC,105039.564,A,5920.7087,N,01803.4363,E,2.331715,161.75,141204,,*02
$GPRMC,105040.564,A,5920.7093,N,01803.4365,E,1.861207,134.79,141204,,*08
$GPRMC,105041.564,A,5920.7096,N,01803.4368,E,2.515009,155.98,141204,,*08
$GPRMC,105042.564,A,5920.7094,N,01803.4369,E,3.339960,169.21,141204,,*0A
$GPRMC,105043.564,A,5920.7089,N,01803.4367,E,2.964541,183.91,141204,,*0A
$GPRMC,105044.564,A,5920.7085,N,01803.4369,E,2.349811,145.21,141204,,*03
$GPRMC,105045.564,A,5920.7081,N,01803.4373,E,2.628922,155.31,141204,,*0E
$GPRMC,105046.564,A,5920.7076,N,01803.4374,E,2.806476,157.90,141204,,*05
$GPRMC,105047.563,A,5920.7070,N,01803.4377,E,2.714046,139.56,141204,,*0F
$GPRMC,105048.563,A,5920.7065,N,01803.4383,E,2.638977,131.56,141204,,*03
$GPRMC,105049.563,A,5920.7059,N,01803.4392,E,2.769015,132.08,141204,,*0D
$GPRMC,105050.563,A,5920.7043,N,01803.4377,E,2.719962,156.22,141204,,*01
$GPRMC,105051.563,A,5920.7037,N,01803.4383,E,2.370759,142.60,141204,,*06
$GPRMC,105052.563,A,5920.7025,N,01803.4378,E,3.158692,170.15,141204,,*0E
$GPRMC,105053.563,A,5920.7016,N,01803.4380,E,2.726981,152.84,141204,,*03
$GPRMC,105054.563,A,5920.7010,N,01803.4386,E,2.204792,142.96,141204,,*0F
$GPRMC,105055.563,A,5920.7004,N,01803.4391,E,2.933874,157.30,141204,,*0D
$GPRMC,105056.563,A,5920.6995,N,01803.4394,E,2.797724,155.59,141204,,*0C
$GPRMC,105057.563,A,5920.6987,N,01803.4396,E,2.940063,159.06,141204,,*0A
$GPRMC,105058.563,A,5920.6976,N,01803.4394,E,2.900778,154.25,141204,,*0C
$GPRMC,105059.563,A,5920.6964,N,01803.4395,E,2.965796,150.85,141204,,*02
$GPRMC,105100.562,A,5920.6952,N,01803.4398,E,3.011163,142.76,141204,,*0E
$GPRMC,105101.562,A,5920.6944,N,01803.4406,E,2.872798,139.75,141204,,*09
$GPRMC,105102.562,A,5920.6937,N,01803.4415,E,2.923798,124.77,141204,,*07
$GPRMC,105103.562,A,5920.6931,N,01803.4422,E,2.741456,148.16,141204,,*02
$GPRMC,105104.562,A,5920.6924,N,01803.4425,E,2.868799,151.13,141204,,*0F
$GPRMC,105105.562,A,5920.6914,N,01803.4425,E,2.924597,137.77,141204,,*0A
$GPRMC,105106.562,A,5920.6902,N,01803.4431,E,3.246545,146.78,141204,,*03
$GPRMC,105107.562,A,5920.6891,N,01803.4439,E,3.422527,154.11,141204,,*0D
$GPRMC,105108.562,A,5920.6877,N,01803.4447,E,3.227711,144.56,141204,,*05
$GPRMC,105109.562,A,5920.6867,N,01803.4455,E,3.192245,153.77,141204,,*0A
$GPRMC,105110.562,A,5920.6852,N,01803.4458,E,2.996409,156.37,141204,,*0B
$GPRMC,105111.562,A,5920.6839,N,01803.4463,E,3.200344,144.88,141204,,*03
$GPRMC,105112.562,A,5920.6829,N,01803.4468,E,3.626067,173.15,141204,,*08
$GPRMC,105113.562,A,5920.6817,N,01803.4469,E,3.278588,151.33,141204,,*0A
$GPRMC,105114.561,A,5920.6807,N,01803.4474,E,3.322189,158.65,141204,,*02
$GPRMC,105115.561,A,5920.6798,N,01803.4481,E,3.369871,157.95,141204,,*01
$GPRMC,105116.561,A,5920.6789,N,01803.4488,E,3.343103,157.73,141204,,*07
$GPRMC,105117.561,A,5920.6781,N,01803.4494,E,3.224543,157.64,141204,,*05
$GPRMC,105118.561,A,5920.6771,N,01803.4508,E,3.306582,157.70,141204,,*08
$GPRMC,105119.561,A,5920.6755,N,01803.4512,E,3.385767,149.42,141204,,*08
$GPRMC,105120.561,A,5920.6745,N,01803.4524,E,3.452806,154.72,141204,,*0C
$GPRMC,105121.561,A,5920.6729,N,01803.4561,E,3.353805,164.43,141204,,*02
$GPRMC,105122.561,A,5920.6720,N,01803.4585,E,3.261084,164.04,141204,,*00
$GPRMC,105123.561,A,5920.6730,N,01803.4606,E,2.836411,170.81,141204,,*01
$GPRMC,105124.561,A,5920.6724,N,01803.4611,E,2.693837,187.03,141204,,*0E
$GPRMC,105125.561,A,5920.6718,N,01803.4614,E,3.246304,201.04,141204,,*09
$GPRMC,105126.561,A,5920.6712,N,01803.4605,E,4.034236,217.82,141204,,*09
$GPRMC,105127.560,A,5920.6707,N,01803.4587,E,5.195699,238.23,141204,,*08
$GPRMC,105128.560,A,5920.6704,N,01803.4565,E,5.289288,235.41,141204,,*0B
$GPRMC,105129.560,A,5920.6704,N,01803.4544,E,3.800685,241.02,141204,,*09
$GPRMC,105130.560,A,5920.6708,N,01803.4528,E,2.813571,240.09,141204,,*06
$GPRMC,105131.560,A,5920.6714,N,01803.4514,E,2.675877,255.12,141204,,*0E
$GPRMC,105132.560,A,5920.6719,N,01803.4499,E,3.011176,240.59,141204,,*02
$GPRMC,105133.560,A,5920.6723,N,01803.4482,E,2.985407,255.89,141204,,*0F
$GPRMC,105134.560,A,5920.6727,N,01803.4466,E,2.934746,262.83,141204,,*04
$GPRMC,105135.560,A,5920.6731,N,01803.4450,E,2.703551,261.32,141204,,*00
$GPRMC,105136.560,A,5920.6733,N,01803.4434,E,2.796015,254.13,141204,,*0F
$GPRMC,105137.560,A,5920.6734,N,01803.4418,E,2.741188,242.95,141204,,*01
$GPRMC,105138.560,A,5920.6732,N,01803.4406,E,2.583959,230.86,141204,,*08
$GPRMC,105139.560,A,5920.6732,N,01803.4394,E,2.604777,245.26,141204,,*03
$GPRMC,105140.560,A,5920.6731,N,01803.4382,E,2.715419,227.92,141204,,*08
$GPRMC,105141.559,A,5920.6728,N,01803.4369,E,3.250288,230.49,141204,,*05
$GPRMC,105142.559,A,5920.6725,N,01803.4356,E,2.428864,233.93,141204,,*03
$GPRMC,105143.559,A,5920.6724,N,01803.4345,E,1.568061,233.93,141204,,*0A
$GPRMC,105144.559,A,5920.6723,N,01803.4333,E,2.837654,241.16,141204,,*07
$GPRMC,105145.559,A,5920.6720,N,01803.4320,E,2.558129,219.44,141204,,*04
$GPRMC,105146.559,A,5920.6718,N,01803.4307,E,2.915124,234.36,141204,,*0B
$GPRMC,105147.559,A,5920.6715,N,01803.4290,E,2.981707,238.04,141204,,*0F
$GPRMC,105148.559,A,5920.6713,N,01803.4272,E,3.096728,242.00,141204,,*00
$GPRMC,105149.559,A,5920.6710,N,01803.4255,E,2.898336,224.13,141204,,*09
$GPRMC,105150.559,A,5920.6706,N,01803.4240,E,2.749084,233.57,141204,,*0D
$GPRMC,105151.559,A,5920.6701,N,01803.4224,E,3.464041,220.13,141204,,*0F
$GPRMC,105152.559,A,5920.6696,N,01803.4208,E,2.886005,226.16,141204,,*0F
$GPRMC,105153.559,A,5920.6692,N,01803.4192,E,2.994718,242.98,141204,,*07
$GPRMC,105154.558,A,5920.6690,N,01803.4175,E,2.837708,240.92,141204,,*0B
$GPRMC,105155.558,A,5920.6687,N,01803.4159,E,3.057634,243.89,141204,,*0A
$GPRMC,105156.558,A,5920.6683,N,01803.4144,E,2.894237,236.12,141204,,*00
$GPRMC,105157.558,A,5920.6680,N,01803.4130,E,2.599644,240.87,141204,,*0C
$GPRMC,105158.558,A,5920.6676,N,01803.4116,E,2.658929,238.67,141204,,*05
$GPRMC,105159.558,A,5920.6673,N,01803.4102,E,2.951143,239.88,141204,,*06
$GPRMC,105200.558,A,5920.6668,N,01803.4087,E,3.071450,232.41,141204,,*0C
$GPRMC,105201.558,A,5920.6664,N,01803.4072,E,2.650776,229.01,141204,,*06
$GPRMC,105202.558,A,5920.6658,N,01803.4059,E,3.107762,221.74,141204,,*08
$GPRMC,105203.558,A,5920.6655,N,01803.4044,E,2.150546,245.15,141204,,*0A
$GPRMC,105204.558,A,5920.6652,N,01803.4029,E,2.964400,224.18,141204,,*07
$GPRMC,105205.558,A,5920.6649,N,01803.4012,E,3.240417,239.79,141204,,*05
$GPRMC,105206.558,A,5920.6645,N,01803.3994,E,2.958430,235.79,141204,,*00
$GPRMC,105207.558,A,5920.6642,N,01803.3976,E,3.166535,242.09,141204,,*0D
$GPRMC,105208.557,A,5920.6639,N,01803.3958,E,2.486704,237.99,141204,,*0C
$GPRMC,105209.557,A,5920.6637,N,01803.3942,E,2.982922,241.51,141204,,*0E
$GPRMC,105210.557,A,5920.6634,N,01803.3926,E,2.624656,228.80,141204,,*0B
$GPRMC,105211.557,A,5920.6631,N,01803.3911,E,3.048774,239.78,141204,,*00
$GPRMC,105212.557,A,5920.6630,N,01803.3894,E,2.464248,256.20,141204,,*0B
$GPRMC,105213.557,A,5920.6629,N,01803.3878,E,2.521478,244.87,141204,,*0B
$GPRMC,105214.557,A,5920.6627,N,01803.3860,E,2.826005,250.95,141204,,*09
$GPRMC,105215.557,A,5920.6627,N,01803.3842,E,2.443852,256.54,141204,,*06
$GPRMC,105216.557,A,5920.6628,N,01803.3822,E,2.846596,261.12,141204,,*06
$GPRMC,105217.557,A,5920.6628,N,01803.3802,E,2.629497,248.98,141204,,*0B
$GPRMC,105218.557,A,5920.6628,N,01803.3784,E,2.610915,257.84,141204,,*0B
$GPRMC,105219.557,A,5920.6626,N,01803.3770,E,1.997157,234.70,141204,,*0C
$GPRMC,105220.557,A,5920.6624,N,01803.3756,E,2.363996,240.00,141204,,*03
$GPRMC,105221.556,A,5920.6621,N,01803.3740,E,2.965225,250.96,141204,,*00
$GPRMC,105222.556,A,5920.6618,N,01803.3722,E,2.934874,242.67,141204,,*0A
$GPRMC,105223.556,A,5920.6615,N,01803.3706,E,2.213840,250.18,141204,,*02
$GPRMC,105224.556,A,5920.6613,N,01803.3691,E,2.020558,242.50,141204,,*05
$GPRMC,105225.556,A,5920.6614,N,01803.3676,E,1.826347,281.50,141204,,*00
$GPRMC,105226.556,A,5920.6612,N,01803.3663,E,2.640570,215.03,141204,,*05
$GPRMC,105227.556,A,5920.6608,N,01803.3647,E,3.014052,243.45,141204,,*0B
$GPRMC,105228.556,A,5920.6604,N,01803.3629,E,2.941148,231.13,141204,,*04
$GPRMC,105229.556,A,5920.6600,N,01803.3611,E,2.906572,245.53,141204,,*03
$GPRMC,105230.556,A,5920.6597,N,01803.3592,E,2.861908,244.01,141204,,*09
$GPRMC,105231.556,A,5920.6594,N,01803.3576,E,2.253539,242.11,141204,,*03
$GPRMC,105232.556,A,5920.6589,N,01803.3562,E,2.803112,234.99,141204,,*0A
$GPRMC,105233.556,A,5920.6582,N,01803.3547,E,3.248894,225.25,141204,,*03
$GPRMC,105234.555,A,5920.6576,N,01803.3528,E,3.333060,248.75,141204,,*05
$GPRMC,105235.555,A,5920.6572,N,01803.3509,E,3.043530,241.90,141204,,*05
$GPRMC,105236.555,A,5920.6568,N,01803.3492,E,2.754299,246.07,141204,,*03
$GPRMC,105237.555,A,5920.6564,N,01803.3476,E,3.032424,243.66,141204,,*00
$GPRMC,105238.555,A,5920.6559,N,01803.3460,E,3.227547,225.77,141204,,*04
$GPRMC,105239.555,A,5920.6554,N,01803.3444,E,3.339679,235.55,141204,,*0F
$GPRMC,105240.555,A,5920.6550,N,01803.3426,E,3.023461,243.48,141204,,*0F
$GPRMC,105241.555,A,5920.6548,N,01803.3410,E,2.628346,245.13,141204,,*04
$GPRMC,105242.555,A,5920.6543,N,01803.3397,E,2.675345,218.28,141204,,*0F
$GPRMC,105243.555,A,5920.6537,N,01803.3387,E,2.700977,220.96,141204,,*0A
$GPRMC,105244.555,A,5920.6530,N,01803.3381,E,1.918890,194.23,141204,,*02
$GPRMC,105245.555,A,5920.6525,N,01803.3383,E,0.907587,194.23,141204,,*01
$GPRMC,105246.555,A,5920.6520,N,01803.3388,E,0.177097,194.23,141204,,*07
$GPRMC,105247.555,A,5920.6516,N,01803.3392,E,0.162069,194.23,141204,,*0D
$GPRMC,105248.554,A,5920.6513,N,01803.3396,E,0.105352,194.23,141204,,*08
$GPRMC,105249.554,A,5920.6509,N,01803.3402,E,0.089829,194.23,141204,,*0A
$GPRMC,105250.554,A,5920.6506,N,01803.3408,E,0.117445,194.23,141204,,*07
$GPRMC,105251.554,A,5920.6503,N,01803.3414,E,0.155954,194.23,141204,,*05
$GPRMC,105252.554,A,5920.6501,N,01803.3420,E,0.090871,194.23,141204,,*0D
$GPRMC,105253.554,A,5920.6500,N,01803.3426,E,0.170075,194.23,141204,,*08
$GPRMC,105254.554,A,5920.6498,N,01803.3433,E,0.130738,194.23,141204,,*01
$GPRMC,105255.554,A,5920.6496,N,01803.3438,E,0.083673,194.23,141204,,*02
$GPRMC,105256.554,A,5920.6494,N,01803.3442,E,0.087744,194.23,141204,,*0F
$GPRMC,105257.554,A,5920.6490,N,01803.3442,E,0.075483,194.23,141204,,*0F
$GPRMC,105258.554,A,5920.6486,N,01803.3440,E,0.091387,194.23,141204,,*0C
$GPRMC,105259.554,A,5920.6481,N,01803.3437,E,0.105223,194.23,141204,,*09
$GPRMC,105300.554,A,5920.6476,N,01803.3434,E,0.090873,194.23,141204,,*0D
$GPRMC,105301.553,A,5920.6472,N,01803.3434,E,0.079405,194.23,141204,,*05
$GPRMC,105302.553,A,5920.6469,N,01803.3436,E,0.083305,194.23,141204,,*0C
$GPRMC,105303.553,A,5920.6469,N,01803.3440,E,0.108461,194.23,141204,,*0B
$GPRMC,105304.553,A,5920.6469,N,01803.3444,E,0.100419,194.23,141204,,*0F
$GPRMC,105305.553,A,5920.6472,N,01803.3448,E,0.101999,194.23,141204,,*0C
$GPRMC,105306.553,A,5920.6475,N,01803.3453,E,0.133259,194.23,141204,,*04
$GPRMC,105307.553,A,5920.6478,N,01803.3460,E,0.124153,194.23,141204,,*07
$GPRMC,105308.553,A,5920.6481,N,01803.3464,E,0.131951,194.23,141204,,*04
$GPRMC,105309.553,A,5920.6483,N,01803.3469,E,0.104040,194.23,141204,,*05
$GPRMC,105310.553,A,5920.6486,N,01803.3472,E,0.106947,194.23,141204,,*0E
$GPRMC,105311.553,A,5920.6488,N,01803.3473,E,0.043481,194.23,141204,,*07
$GPRMC,105312.553,A,5920.6488,N,01803.3473,E,0.155241,194.23,141204,,*08
$GPRMC,105313.553,A,5920.6487,N,01803.3475,E,0.107403,194.23,141204,,*07
$GPRMC,105314.553,A,5920.6486,N,01803.3475,E,0.140839,194.23,141204,,*07
$GPRMC,105315.552,A,5920.6481,N,01803.3470,E,0.221662,194.23,141204,,*01
$GPRMC,105316.552,A,5920.6477,N,01803.3466,E,0.713571,194.23,141204,,*09
$GPRMC,105317.552,A,5920.6471,N,01803.3465,E,1.879199,156.91,141204,,*0A
$GPRMC,105318.552,A,5920.6464,N,01803.3465,E,2.871362,156.02,141204,,*06
$GPRMC,105319.552,A,5920.6456,N,01803.3470,E,2.721865,151.78,141204,,*0E
$GPRMC,105320.552,A,5920.6450,N,01803.3478,E,2.800421,145.14,141204,,*05
$GPRMC,105321.552,A,5920.6443,N,01803.3485,E,2.943212,152.54,141204,,*06
$GPRMC,105322.552,A,5920.6438,N,01803.3490,E,2.614005,152.06,141204,,*03
$GPRMC,105323.552,A,5920.6434,N,01803.3497,E,2.528395,139.41,141204,,*01
$GPRMC,105324.552,A,5920.6430,N,01803.3506,E,2.869423,125.98,141204,,*00
$GPRMC,105325.552,A,5920.6427,N,01803.3515,E,2.775162,130.58,141204,,*0F
$GPRMC,105326.552,A,5920.6423,N,01803.3522,E,2.608028,147.19,141204,,*0D
$GPRMC,105327.552,A,5920.6419,N,01803.3525,E,2.638491,158.26,141204,,*05
$GPRMC,105328.551,A,5920.6414,N,01803.3525,E,2.855869,161.71,141204,,*02
$GPRMC,105329.551,A,5920.6409,N,01803.3523,E,2.237069,174.54,141204,,*0C
$GPRMC,105330.551,A,5920.6406,N,01803.3517,E,2.297870,181.68,141204,,*03
$GPRMC,105331.551,A,5920.6403,N,01803.3504,E,2.549631,201.51,141204,,*0B
$GPRMC,105332.551,A,5920.6400,N,01803.3489,E,3.051622,216.07,141204,,*05
$GPRMC,105333.551,A,5920.6395,N,01803.3474,E,3.259170,210.69,141204,,*09
$GPRMC,105334.551,A,5920.6388,N,01803.3460,E,3.235672,199.54,141204,,*04
$GPRMC,105335.551,A,5920.6380,N,01803.3452,E,3.178454,187.86,141204,,*00
$GPRMC,105336.551,A,5920.6371,N,01803.3449,E,3.098499,175.30,141204,,*09
$GPRMC,105337.551,A,5920.6363,N,01803.3451,E,2.887983,159.84,141204,,*02
$GPRMC,105338.551,A,5920.6355,N,01803.3457,E,3.031099,151.08,141204,,*04
$GPRMC,105339.551,A,5920.6346,N,01803.3466,E,3.103426,147.01,141204,,*0B
$GPRMC,105340.551,A,5920.6337,N,01803.3476,E,3.130866,153.68,141204,,*00
$GPRMC,105341.550,A,5920.6328,N,01803.3485,E,3.115816,146.78,141204,,*07
$GPRMC,105342.550,A,5920.6319,N,01803.3495,E,2.868061,140.78,141204,,*0B
$GPRMC,105343.550,A,5920.6311,N,01803.3505,E,3.212237,145.11,141204,,*07
$GPRMC,105344.550,A,5920.6302,N,01803.3513,E,3.072892,157.96,141204,,*08
$GPRMC,105345.550,A,5920.6292,N,01803.3519,E,3.137814,162.79,141204,,*02
$GPRMC,105346.550,A,5920.6281,N,01803.3524,E,3.133234,159.59,141204,,*0B
$GPRMC,105347.550,A,5920.6271,N,01803.3530,E,3.068656,158.33,141204,,*02
$GPRMC,105348.550,A,5920.6261,N,01803.3534,E,2.910353,167.37,141204,,*07
$GPRMC,105349.550,A,5920.6252,N,01803.3538,E,3.043941,164.10,141204,,*0B
$GPRMC,105350.550,A,5920.6241,N,01803.3543,E,3.782556,164.00,141204,,*0C
$GPRMC,105351.550,A,5920.6230,N,01803.3551,E,3.090019,156.77,141204,,*03
$GPRMC,105352.550,A,5920.6221,N,01803.3560,E,3.051617,151.70,141204,,*07
$GPRMC,105353.550,A,5920.6213,N,01803.3569,E,3.039419,157.17,141204,,*0B
$GPRMC,105354.550,A,5920.6204,N,01803.3580,E,3.201841,148.97,141204,,*03
$GPRMC,105355.549,A,5920.6196,N,01803.3592,E,3.035350,145.02,141204,,*0E
$GPRMC,105356.549,A,5920.6189,N,01803.3604,E,2.802821,141.90,141204,,*00
$GPRMC,105357.549,A,5920.6182,N,01803.3617,E,2.498390,136.22,141204,,*0F
$GPRMC,105358.549,A,5920.6176,N,01803.3628,E,2.777815,147.48,141204,,*09
$GPRMC,105359.549,A,5920.6168,N,01803.3639,E,3.285093,156.87,141204,,*0B
$GPRMC,105400.549,A,5920.6159,N,01803.3651,E,2.892984,145.85,141204,,*0E
$GPRMC,105401.549,A,5920.6152,N,01803.3664,E,3.259472,139.82,141204,,*06
$GPRMC,105402.549,A,5920.6144,N,01803.3681,E,3.226459,134.67,141204,,*0E
$GPRMC,105403.549,A,5920.6137,N,01803.3696,E,2.916884,137.53,141204,,*0C
$GPRMC,105404.549,A,5920.6130,N,01803.3708,E,2.939866,142.34,141204,,*08
$GPRMC,105405.549,A,5920.6123,N,01803.3719,E,2.845783,153.55,141204,,*02
$GPRMC,105406.549,A,5920.6115,N,01803.3728,E,2.994610,159.43,141204,,*0D
$GPRMC,105407.549,A,5920.6106,N,01803.3734,E,3.307312,163.74,141204,,*08
$GPRMC,105408.548,A,5920.6098,N,01803.3739,E,3.011736,166.14,141204,,*08
$GPRMC,105409.548,A,5920.6090,N,01803.3746,E,3.156159,145.45,141204,,*01
$GPRMC,105410.548,A,5920.6083,N,01803.3756,E,3.299384,139.33,141204,,*02
$GPRMC,105411.548,A,5920.6075,N,01803.3767,E,3.097859,146.40,141204,,*03
$GPRMC,105412.548,A,5920.6067,N,01803.3775,E,2.986841,152.79,141204,,*0E
$GPRMC,105413.548,A,5920.6059,N,01803.3781,E,2.814217,159.38,141204,,*04
$GPRMC,105414.548,A,5920.6050,N,01803.3787,E,2.961391,160.76,141204,,*00
$GPRMC,105415.548,A,5920.6042,N,01803.3792,E,2.949504,161.81,141204,,*0F
$GPRMC,105416.548,A,5920.6033,N,01803.3798,E,3.022649,155.13,141204,,*03
$GPRMC,105417.548,A,5920.6025,N,01803.3804,E,2.969354,153.12,141204,,*06
$GPRMC,105418.548,A,5920.6017,N,01803.3811,E,3.067916,154.54,141204,,*03
$GPRMC,105419.548,A,5920.6009,N,01803.3817,E,3.060059,157.58,141204,,*01
$GPRMC,105420.548,A,5920.6000,N,01803.3822,E,3.052434,163.14,141204,,*05
$GPRMC,105421.547,A,5920.5991,N,01803.3825,E,3.085889,160.96,141204,,*07
$GPRMC,105422.547,A,5920.5983,N,01803.3830,E,3.150745,156.28,141204,,*05
$GPRMC,105423.547,A,5920.5974,N,01803.3836,E,3.099512,154.46,141204,,*04
$GPRMC,105424.547,A,5920.5966,N,01803.3843,E,3.182951,158.98,141204,,*0D
$GPRMC,105425.547,A,5920.5958,N,01803.3850,E,3.178698,156.32,141204,,*02
$GPRMC,105426.547,A,5920.5949,N,01803.3857,E,3.089981,152.75,141204,,*09
$GPRMC,105427.547,A,5920.5941,N,01803.3865,E,3.257639,152.52,141204,,*09
$GPRMC,105428.547,A,5920.5933,N,01803.3874,E,3.238267,157.91,141204,,*0F
$GPRMC,105429.547,A,5920.5925,N,01803.3883,E,3.215355,152.72,141204,,*06
$GPRMC,105430.547,A,5920.5916,N,01803.3890,E,3.086295,157.62,141204,,*0D
$GPRMC,105431.547,A,5920.5908,N,01803.3898,E,3.219303,158.07,141204,,*0D
$GPRMC,105432.547,A,5920.5900,N,01803.3907,E,3.081412,154.67,141204,,*0F
$GPRMC,105433.547,A,5920.5893,N,01803.3916,E,3.147908,153.07,141204,,*09
$GPRMC,105434.547,A,5920.5885,N,01803.3924,E,3.120344,154.48,141204,,*07
$GPRMC,105435.546,A,5920.5877,N,01803.3931,E,3.131712,152.97,141204,,*0D
$GPRMC,105436.546,A,5920.5869,N,01803.3939,E,3.060880,150.29,141204,,*0F
$GPRMC,105437.546,A,5920.5861,N,01803.3946,E,2.816437,148.54,141204,,*05
$GPRMC,105438.546,A,5920.5854,N,01803.3956,E,2.835126,142.93,141204,,*08
$GPRMC,105439.546,A,5920.5847,N,01803.3966,E,2.578206,141.58,141204,,*09
$GPRMC,105440.546,A,5920.5840,N,01803.3977,E,3.132669,144.48,141204,,*02
$GPRMC,105441.546,A,5920.5831,N,01803.3988,E,3.039484,147.01,141204,,*00
$GPRMC,105442.546,A,5920.5823,N,01803.3998,E,2.943494,144.60,141204,,*01
$GPRMC,105443.546,A,5920.5815,N,01803.4006,E,2.901430,153.95,141204,,*08
$GPRMC,105444.546,A,5920.5807,N,01803.4015,E,3.409424,137.73,141204,,*05
$GPRMC,105445.546,A,5920.5799,N,01803.4026,E,3.281989,148.42,141204,,*0A
$GPRMC,105446.546,A,5920.5790,N,01803.4034,E,2.708496,152.03,141204,,*0B
$GPRMC,105447.546,A,5920.5782,N,01803.4041,E,2.851154,150.86,141204,,*0C
$GPRMC,105448.545,A,5920.5771,N,01803.4040,E,2.832744,164.38,141204,,*0D
$GPRMC,105449.545,A,5920.5762,N,01803.4040,E,2.713752,161.36,141204,,*0E
$GPRMC,105450.545,A,5920.5754,N,01803.4043,E,2.765657,153.24,141204,,*07
$GPRMC,105451.545,A,5920.5745,N,01803.4049,E,3.028686,156.45,141204,,*0D
$GPRMC,105452.545,A,5920.5736,N,01803.4055,E,3.186285,155.17,141204,,*01
$GPRMC,105453.545,A,5920.5728,N,01803.4062,E,2.995912,146.41,141204,,*04
$GPRMC,105454.545,A,5920.5720,N,01803.4070,E,2.712688,146.39,141204,,*0A
$GPRMC,105455.545,A,5920.5713,N,01803.4078,E,2.907603,144.68,141204,,*0C
$GPRMC,105456.545,A,5920.5705,N,01803.4085,E,2.956635,151.47,141204,,*02
$GPRMC,105457.545,A,5920.5697,N,01803.4092,E,2.958259,144.42,141204,,*0E
$GPRMC,105458.545,A,5920.5689,N,01803.4099,E,3.111148,149.36,141204,,*0C
$GPRMC,105459.545,A,5920.5681,N,01803.4105,E,3.068118,154.32,141204,,*03
$GPRMC,105500.545,A,5920.5673,N,01803.4109,E,3.206821,154.00,141204,,*07
$GPRMC,105501.544,A,5920.5665,N,01803.4115,E,3.177941,155.24,141204,,*08
$GPRMC,105502.544,A,5920.5658,N,01803.4122,E,2.789155,145.33,141204,,*0D
$GPRMC,105503.544,A,5920.5650,N,01803.4129,E,2.827727,147.98,141204,,*04
$GPRMC,105504.544,A,5920.5643,N,01803.4135,E,2.623575,146.09,141204,,*0A
$GPRMC,105505.544,A,5920.5635,N,01803.4142,E,3.147076,145.17,141204,,*04
$GPRMC,105506.544,A,5920.5626,N,01803.4148,E,3.150515,155.70,141204,,*09
$GPRMC,105507.544,A,5920.5618,N,01803.4154,E,3.031618,150.24,141204,,*04
$GPRMC,105508.544,A,5920.5610,N,01803.4162,E,2.802288,144.96,141204,,*0E
$GPRMC,105509.544,A,5920.5602,N,01803.4169,E,3.104759,154.18,141204,,*07
$GPRMC,105510.544,A,5920.5594,N,01803.4174,E,3.167198,158.67,141204,,*05
$GPRMC,105511.544,A,5920.5585,N,01803.4180,E,3.001327,151.58,141204,,*0D
$GPRMC,105512.544,A,5920.5577,N,01803.4186,E,2.958790,158.68,141204,,*03
$GPRMC,105513.544,A,5920.5570,N,01803.4191,E,2.782545,154.29,141204,,*09
$GPRMC,105514.544,A,5920.5563,N,01803.4195,E,2.535723,148.54,141204,,*03
$GPRMC,105515.543,A,5920.5557,N,01803.4200,E,2.343075,149.96,141204,,*01
$GPRMC,105516.543,A,5920.5552,N,01803.4203,E,1.931177,148.04,141204,,*01
$GPRMC,105517.543,A,5920.5548,N,01803.4205,E,1.233697,148.04,141204,,*0D
$GPRMC,105518.543,A,5920.5546,N,01803.4206,E,0.620183,148.04,141204,,*0A
$GPRMC,105519.543,A,5920.5544,N,01803.4207,E,1.722217,160.49,141204,,*07
$GPRMC,105520.543,A,5920.5539,N,01803.4209,E,2.158633,159.37,141204,,*00
$GPRMC,105521.543,A,5920.5534,N,01803.4212,E,2.198476,145.66,141204,,*00
$GPRMC,105522.543,A,5920.5529,N,01803.4219,E,2.439264,142.76,141204,,*09
$GPRMC,105523.543,A,5920.5522,N,01803.4226,E,2.292981,148.26,141204,,*07
$GPRMC,105524.543,A,5920.5516,N,01803.4234,E,2.298818,135.37,141204,,*05
$GPRMC,105525.543,A,5920.5510,N,01803.4243,E,2.036748,142.06,141204,,*0C
$GPRMC,105526.543,A,5920.5504,N,01803.4251,E,2.012775,137.50,141204,,*00
$GPRMC,105527.543,A,5920.5498,N,01803.4259,E,2.074492,139.60,141204,,*0A
$GPRMC,105528.542,A,5920.5492,N,01803.4266,E,2.511863,141.04,141204,,*0B
$GPRMC,105529.542,A,5920.5485,N,01803.4274,E,2.505926,142.03,141204,,*0E
$GPRMC,105530.542,A,5920.5479,N,01803.4282,E,2.253134,126.44,141204,,*02
$GPRMC,105531.542,A,5920.5475,N,01803.4293,E,2.330372,116.84,141204,,*04
$GPRMC,105532.542,A,5920.5472,N,01803.4306,E,2.327172,91.28,141204,,*31
$GPRMC,105533.542,A,5920.5472,N,01803.4317,E,1.842342,63.74,141204,,*3E
$GPRMC,105534.542,A,5920.5474,N,01803.4326,E,1.963327,59.11,141204,,*36
$GPRMC,105535.542,A,5920.5476,N,01803.4335,E,1.963415,59.23,141204,,*30
$GPRMC,105536.542,A,5920.5478,N,01803.4345,E,2.032115,54.44,141204,,*3D
$GPRMC,105537.542,A,5920.5481,N,01803.4353,E,2.036866,49.95,141204,,*34
$GPRMC,105538.542,A,5920.5486,N,01803.4361,E,2.197594,42.82,141204,,*3A
$GPRMC,105539.542,A,5920.5492,N,01803.4370,E,2.540226,40.94,141204,,*3B
$GPRMC,105540.542,A,5920.5499,N,01803.4380,E,3.081178,41.53,141204,,*3A
